header: 
  seq: 1582
  stamp: 
    secs: 1383345575
    nsecs: 647422359
  frame_id: ''
name: ['mockarm_controller']
position: [0.5184326010123956]
velocity: [0.006889684208014729]
effort: [0.0]
---
header: 
  seq: 1583
  stamp: 
    secs: 1383345575
    nsecs: 657487422
  frame_id: ''
name: ['mockarm_controller']
position: [0.5184326010123956]
velocity: [0.0]
effort: [0.0]
---
header: 
  seq: 1584
  stamp: 
    secs: 1383345575
    nsecs: 667484367
  frame_id: ''
name: ['mockarm_controller']
position: [0.5184151477198757]
velocity: [-0.0016994442570494451]
effort: [0.0]
---
header: 
  seq: 1585
  stamp: 
    secs: 1383345575
    nsecs: 677486031
  frame_id: ''
name: ['mockarm_controller']
position: [0.5183802411348358]
velocity: [-0.003459865699267185]
effort: [0.0]
---
header: 
  seq: 1586
  stamp: 
    secs: 1383345575
    nsecs: 687487964
  frame_id: ''
name: ['mockarm_controller']
position: [0.5183453345497959]
velocity: [-0.003429274490608766]
effort: [0.0]
---
header: 
  seq: 1587
  stamp: 
    secs: 1383345575
    nsecs: 697487094
  frame_id: ''
name: ['mockarm_controller']
position: [0.5183453345497959]
velocity: [0.0]
effort: [0.0]
---
header: 
  seq: 1588
  stamp: 
    secs: 1383345575
    nsecs: 707481149
  frame_id: ''
name: ['mockarm_controller']
position: [0.5183453345497959]
velocity: [0.0]
effort: [0.0]
---
header: 
  seq: 1589
  stamp: 
    secs: 1383345575
    nsecs: 717484369
  frame_id: ''
name: ['mockarm_controller']
position: [0.5183453345497959]
velocity: [0.0]
effort: [0.0]
---
header: 
  seq: 1590
  stamp: 
    secs: 1383345575
    nsecs: 727487680
  frame_id: ''
name: ['mockarm_controller']
position: [0.5183802411348358]
velocity: [0.0034502901097070897]
effort: [0.0]
---
header: 
  seq: 1591
  stamp: 
    secs: 1383345575
    nsecs: 737483531
  frame_id: ''
name: ['mockarm_controller']
position: [0.5183976944273557]
velocity: [0.0017402824329342708]
effort: [0.0]
---
header: 
  seq: 1592
  stamp: 
    secs: 1383345575
    nsecs: 747483445
  frame_id: ''
name: ['mockarm_controller']
position: [0.5183976944273557]
velocity: [0.0]
effort: [0.0]
---
header: 
  seq: 1593
  stamp: 
    secs: 1383345575
    nsecs: 757484723
  frame_id: ''
name: ['mockarm_controller']
position: [0.5183976944273557]
velocity: [0.0]
effort: [0.0]
---
header: 
  seq: 1594
  stamp: 
    secs: 1383345575
    nsecs: 767486930
  frame_id: ''
name: ['mockarm_controller']
position: [0.5183802411348358]
velocity: [-0.0017188588260683279]
effort: [0.0]
---
header: 
  seq: 1595
  stamp: 
    secs: 1383345575
    nsecs: 777487848
  frame_id: ''
name: ['mockarm_controller']
position: [0.5183627878423158]
velocity: [-0.0017239522441731354]
effort: [0.0]
---
header: 
  seq: 1596
  stamp: 
    secs: 1383345575
    nsecs: 787487671
  frame_id: ''
name: ['mockarm_controller']
position: [0.5183627878423158]
velocity: [0.0]
effort: [0.0]
---
header: 
  seq: 1597
  stamp: 
    secs: 1383345575
    nsecs: 797484564
  frame_id: ''
name: ['mockarm_controller']
position: [0.5183627878423158]
velocity: [0.0]
effort: [0.0]
---
header: 
  seq: 1598
  stamp: 
    secs: 1383345575
    nsecs: 807487020
  frame_id: ''
name: ['mockarm_controller']
position: [0.5183802411348358]
velocity: [0.001738202621253742]
effort: [0.0]
---
header: 
  seq: 1599
  stamp: 
    secs: 1383345575
    nsecs: 817483859
  frame_id: ''
name: ['mockarm_controller']
position: [0.5183802411348358]
velocity: [0.0]
effort: [0.0]
---
header: 
  seq: 1600
  stamp: 
    secs: 1383345575
    nsecs: 827486567
  frame_id: ''
name: ['mockarm_controller']
position: [0.5183976944273557]
velocity: [0.0017173366643607006]
effort: [0.0]
---
header: 
  seq: 1601
  stamp: 
    secs: 1383345575
    nsecs: 837483342
  frame_id: ''
name: ['mockarm_controller']
position: [0.5183976944273557]
velocity: [0.0]
effort: [0.0]
---
header: 
  seq: 1602
  stamp: 
    secs: 1383345575
    nsecs: 847487435
  frame_id: ''
name: ['mockarm_controller']
position: [0.5183976944273557]
velocity: [0.0]
effort: [0.0]
---
header: 
  seq: 1603
  stamp: 
    secs: 1383345575
    nsecs: 857487346
  frame_id: ''
name: ['mockarm_controller']
position: [0.5183802411348358]
velocity: [-0.001722931147077769]
effort: [0.0]
---
header: 
  seq: 1604
  stamp: 
    secs: 1383345575
    nsecs: 867486096
  frame_id: ''
name: ['mockarm_controller']
position: [0.5183802411348358]
velocity: [0.0]
effort: [0.0]
---
header: 
  seq: 1605
  stamp: 
    secs: 1383345575
    nsecs: 877487572
  frame_id: ''
name: ['mockarm_controller']
position: [0.5183802411348358]
velocity: [0.0]
effort: [0.0]
---
header: 
  seq: 1606
  stamp: 
    secs: 1383345575
    nsecs: 887487180
  frame_id: ''
name: ['mockarm_controller']
position: [0.5183802411348358]
velocity: [0.0]
effort: [0.0]
---
header: 
  seq: 1607
  stamp: 
    secs: 1383345575
    nsecs: 897483554
  frame_id: ''
name: ['mockarm_controller']
position: [0.5183802411348358]
velocity: [0.0]
effort: [0.0]
---
header: 
  seq: 1608
  stamp: 
    secs: 1383345575
    nsecs: 907417839
  frame_id: ''
name: ['mockarm_controller']
position: [0.5183976944273557]
velocity: [0.0017402824329342708]
effort: [0.0]
---
header: 
  seq: 1609
  stamp: 
    secs: 1383345575
    nsecs: 917483589
  frame_id: ''
name: ['mockarm_controller']
position: [0.5183976944273557]
velocity: [0.0]
effort: [0.0]
---
header: 
  seq: 1610
  stamp: 
    secs: 1383345575
    nsecs: 927488281
  frame_id: ''
name: ['mockarm_controller']
position: [0.5183976944273557]
velocity: [0.0]
effort: [0.0]
---
header: 
  seq: 1611
  stamp: 
    secs: 1383345575
    nsecs: 937482812
  frame_id: ''
name: ['mockarm_controller']
position: [0.5183976944273557]
velocity: [0.0]
effort: [0.0]
---
header: 
  seq: 1612
  stamp: 
    secs: 1383345575
    nsecs: 947482340
  frame_id: ''
name: ['mockarm_controller']
position: [0.5183802411348358]
velocity: [-0.001719366813111792]
effort: [0.0]
---
header: 
  seq: 1613
  stamp: 
    secs: 1383345575
    nsecs: 957483073
  frame_id: ''
name: ['mockarm_controller']
position: [0.5183802411348358]
velocity: [0.0]
effort: [0.0]
---
header: 
  seq: 1614
  stamp: 
    secs: 1383345575
    nsecs: 967487887
  frame_id: ''
name: ['mockarm_controller']
position: [0.5183802411348358]
velocity: [0.0]
effort: [0.0]
---
header: 
  seq: 1615
  stamp: 
    secs: 1383345575
    nsecs: 977482977
  frame_id: ''
name: ['mockarm_controller']
position: [0.5183802411348358]
velocity: [0.0]
effort: [0.0]
---
header: 
  seq: 1616
  stamp: 
    secs: 1383345575
    nsecs: 987487590
  frame_id: ''
name: ['mockarm_controller']
position: [0.5183976944273557]
velocity: [0.0017205532846902404]
effort: [0.0]
---
header: 
  seq: 1617
  stamp: 
    secs: 1383345575
    nsecs: 997483315
  frame_id: ''
name: ['mockarm_controller']
position: [0.5183976944273557]
velocity: [0.0]
effort: [0.0]
---
header: 
  seq: 1618
  stamp: 
    secs: 1383345576
    nsecs: 7487139
  frame_id: ''
name: ['mockarm_controller']
position: [0.5183976944273557]
velocity: [0.0]
effort: [0.0]
---
header: 
  seq: 1619
  stamp: 
    secs: 1383345576
    nsecs: 17482909
  frame_id: ''
name: ['mockarm_controller']
position: [0.5183976944273557]
velocity: [0.0]
effort: [0.0]
---
header: 
  seq: 1620
  stamp: 
    secs: 1383345576
    nsecs: 27487608
  frame_id: ''
name: ['mockarm_controller']
position: [0.5183976944273557]
velocity: [0.0]
effort: [0.0]
---
header: 
  seq: 1621
  stamp: 
    secs: 1383345576
    nsecs: 37482696
  frame_id: ''
name: ['mockarm_controller']
position: [0.5183976944273557]
velocity: [0.0]
effort: [0.0]
---
header: 
  seq: 1622
  stamp: 
    secs: 1383345576
    nsecs: 47480966
  frame_id: ''
name: ['mockarm_controller']
position: [0.5183802411348358]
velocity: [-0.0017217413948799251]
effort: [0.0]
---
header: 
  seq: 1623
  stamp: 
    secs: 1383345576
    nsecs: 57479226
  frame_id: ''
name: ['mockarm_controller']
position: [0.5183976944273557]
velocity: [0.0017203836885064368]
effort: [0.0]
---
header: 
  seq: 1624
  stamp: 
    secs: 1383345576
    nsecs: 67481558
  frame_id: ''
name: ['mockarm_controller']
position: [0.5183976944273557]
velocity: [0.0]
effort: [0.0]
---
header: 
  seq: 1625
  stamp: 
    secs: 1383345576
    nsecs: 77479765
  frame_id: ''
name: ['mockarm_controller']
position: [0.5183976944273557]
velocity: [0.0]
effort: [0.0]
---
header: 
  seq: 1626
  stamp: 
    secs: 1383345576
    nsecs: 87414083
  frame_id: ''
name: ['mockarm_controller']
position: [0.5183976944273557]
velocity: [0.0]
effort: [0.0]
---
header: 
  seq: 1627
  stamp: 
    secs: 1383345576
    nsecs: 97414829
  frame_id: ''
name: ['mockarm_controller']
position: [0.5183976944273557]
velocity: [0.0]
effort: [0.0]
---
header: 
  seq: 1628
  stamp: 
    secs: 1383345576
    nsecs: 107444103
  frame_id: ''
name: ['mockarm_controller']
position: [0.5183976944273557]
velocity: [0.0]
effort: [0.0]
---
header: 
  seq: 1629
  stamp: 
    secs: 1383345576
    nsecs: 117443710
  frame_id: ''
name: ['mockarm_controller']
position: [0.5183976944273557]
velocity: [0.0]
effort: [0.0]
---
header: 
  seq: 1630
  stamp: 
    secs: 1383345576
    nsecs: 127482931
  frame_id: ''
name: ['mockarm_controller']
position: [0.5183976944273557]
velocity: [0.0]
effort: [0.0]
---
header: 
  seq: 1631
  stamp: 
    secs: 1383345576
    nsecs: 137485166
  frame_id: ''
name: ['mockarm_controller']
position: [0.5183976944273557]
velocity: [0.0]
effort: [0.0]
---
header: 
  seq: 1632
  stamp: 
    secs: 1383345576
    nsecs: 147479988
  frame_id: ''
name: ['mockarm_controller']
position: [0.5183976944273557]
velocity: [0.0]
effort: [0.0]
---
header: 
  seq: 1633
  stamp: 
    secs: 1383345576
    nsecs: 157480172
  frame_id: ''
name: ['mockarm_controller']
position: [0.5183976944273557]
velocity: [0.0]
effort: [0.0]
---
header: 
  seq: 1634
  stamp: 
    secs: 1383345576
    nsecs: 167480824
  frame_id: ''
name: ['mockarm_controller']
position: [0.5183976944273557]
velocity: [0.0]
effort: [0.0]
---
header: 
  seq: 1635
  stamp: 
    secs: 1383345576
    nsecs: 177477979
  frame_id: ''
name: ['mockarm_controller']
position: [0.5183976944273557]
velocity: [0.0]
effort: [0.0]
---
header: 
  seq: 1636
  stamp: 
    secs: 1383345576
    nsecs: 187478130
  frame_id: ''
name: ['mockarm_controller']
position: [0.5183976944273557]
velocity: [0.0]
effort: [0.0]
---
header: 
  seq: 1637
  stamp: 
    secs: 1383345576
    nsecs: 197415310
  frame_id: ''
name: ['mockarm_controller']
position: [0.5183976944273557]
velocity: [0.0]
effort: [0.0]
---
header: 
  seq: 1638
  stamp: 
    secs: 1383345576
    nsecs: 207505825
  frame_id: ''
name: ['mockarm_controller']
position: [0.5183976944273557]
velocity: [0.0]
effort: [0.0]
---
header: 
  seq: 1639
  stamp: 
    secs: 1383345576
    nsecs: 217480385
  frame_id: ''
name: ['mockarm_controller']
position: [0.5183976944273557]
velocity: [0.0]
effort: [0.0]
---
header: 
  seq: 1640
  stamp: 
    secs: 1383345576
    nsecs: 227488241
  frame_id: ''
name: ['mockarm_controller']
position: [0.5183976944273557]
velocity: [0.0]
effort: [0.0]
---
header: 
  seq: 1641
  stamp: 
    secs: 1383345576
    nsecs: 237486681
  frame_id: ''
name: ['mockarm_controller']
position: [0.5183976944273557]
velocity: [0.0]
effort: [0.0]
---
header: 
  seq: 1642
  stamp: 
    secs: 1383345576
    nsecs: 247484750
  frame_id: ''
name: ['mockarm_controller']
position: [0.5183976944273557]
velocity: [0.0]
effort: [0.0]
---
header: 
  seq: 1643
  stamp: 
    secs: 1383345576
    nsecs: 257487748
  frame_id: ''
name: ['mockarm_controller']
position: [0.5183976944273557]
velocity: [0.0]
effort: [0.0]
---
header: 
  seq: 1644
  stamp: 
    secs: 1383345576
    nsecs: 267486864
  frame_id: ''
name: ['mockarm_controller']
position: [0.5183976944273557]
velocity: [0.0]
effort: [0.0]
---
header: 
  seq: 1645
  stamp: 
    secs: 1383345576
    nsecs: 277486932
  frame_id: ''
name: ['mockarm_controller']
position: [0.5183976944273557]
velocity: [0.0]
effort: [0.0]
---
header: 
  seq: 1646
  stamp: 
    secs: 1383345576
    nsecs: 287487919
  frame_id: ''
name: ['mockarm_controller']
position: [0.5183976944273557]
velocity: [0.0]
effort: [0.0]
---
header: 
  seq: 1647
  stamp: 
    secs: 1383345576
    nsecs: 297483377
  frame_id: ''
name: ['mockarm_controller']
position: [0.5183976944273557]
velocity: [0.0]
effort: [0.0]
---
header: 
  seq: 1648
  stamp: 
    secs: 1383345576
    nsecs: 307420192
  frame_id: ''
name: ['mockarm_controller']
position: [0.5183976944273557]
velocity: [0.0]
effort: [0.0]
---
header: 
  seq: 1649
  stamp: 
    secs: 1383345576
    nsecs: 317480843
  frame_id: ''
name: ['mockarm_controller']
position: [0.5183976944273557]
velocity: [0.0]
effort: [0.0]
---
header: 
  seq: 1650
  stamp: 
    secs: 1383345576
    nsecs: 327487550
  frame_id: ''
name: ['mockarm_controller']
position: [0.5183976944273557]
velocity: [0.0]
effort: [0.0]
---
header: 
  seq: 1651
  stamp: 
    secs: 1383345576
    nsecs: 337487741
  frame_id: ''
name: ['mockarm_controller']
position: [0.5183976944273557]
velocity: [0.0]
effort: [0.0]
---
header: 
  seq: 1652
  stamp: 
    secs: 1383345576
    nsecs: 347480715
  frame_id: ''
name: ['mockarm_controller']
position: [0.5183976944273557]
velocity: [0.0]
effort: [0.0]
---
header: 
  seq: 1653
  stamp: 
    secs: 1383345576
    nsecs: 357487215
  frame_id: ''
name: ['mockarm_controller']
position: [0.5183976944273557]
velocity: [0.0]
effort: [0.0]
---
header: 
  seq: 1654
  stamp: 
    secs: 1383345576
    nsecs: 367486789
  frame_id: ''
name: ['mockarm_controller']
position: [0.5183976944273557]
velocity: [0.0]
effort: [0.0]
---
header: 
  seq: 1655
  stamp: 
    secs: 1383345576
    nsecs: 383399979
  frame_id: ''
name: ['mockarm_controller']
position: [0.5183976944273557]
velocity: [0.0]
effort: [0.0]
---
header: 
  seq: 1656
  stamp: 
    secs: 1383345576
    nsecs: 387485549
  frame_id: ''
name: ['mockarm_controller']
position: [0.5183976944273557]
velocity: [0.0]
effort: [0.0]
---
header: 
  seq: 1657
  stamp: 
    secs: 1383345576
    nsecs: 397483367
  frame_id: ''
name: ['mockarm_controller']
position: [0.5165476454202418]
velocity: [-0.17392582561943604]
effort: [0.0]
---
header: 
  seq: 1658
  stamp: 
    secs: 1383345576
    nsecs: 407489905
  frame_id: ''
name: ['mockarm_controller']
position: [0.5114861905894582]
velocity: [-0.4982237258375405]
effort: [0.0]
---
header: 
  seq: 1659
  stamp: 
    secs: 1383345576
    nsecs: 417505495
  frame_id: ''
name: ['mockarm_controller']
position: [0.5059534968606362]
velocity: [-0.5492597765136539]
effort: [0.0]
---
header: 
  seq: 1660
  stamp: 
    secs: 1383345576
    nsecs: 427486245
  frame_id: ''
name: ['mockarm_controller']
position: [0.5013632809278911]
velocity: [-0.4502418766792656]
effort: [0.0]
---
header: 
  seq: 1661
  stamp: 
    secs: 1383345576
    nsecs: 437487108
  frame_id: ''
name: ['mockarm_controller']
position: [0.49663343865498644]
velocity: [-0.46964971431879926]
effort: [0.0]
---
header: 
  seq: 1662
  stamp: 
    secs: 1383345576
    nsecs: 447487194
  frame_id: ''
name: ['mockarm_controller']
position: [0.4906469593206459]
velocity: [-0.5860479035086191]
effort: [0.0]
---
header: 
  seq: 1663
  stamp: 
    secs: 1383345576
    nsecs: 457487040
  frame_id: ''
name: ['mockarm_controller']
position: [0.4836656423126686]
velocity: [-0.691767440346539]
effort: [0.0]
---
header: 
  seq: 1664
  stamp: 
    secs: 1383345576
    nsecs: 467486522
  frame_id: ''
name: ['mockarm_controller']
position: [0.4768937648149306]
velocity: [-0.663454246863721]
effort: [0.0]
---
header: 
  seq: 1665
  stamp: 
    secs: 1383345576
    nsecs: 477486965
  frame_id: ''
name: ['mockarm_controller']
position: [0.4708549256030302]
velocity: [-0.6002822278231018]
effort: [0.0]
---
header: 
  seq: 1666
  stamp: 
    secs: 1383345576
    nsecs: 487487780
  frame_id: ''
name: ['mockarm_controller']
position: [0.46528732528916833]
velocity: [-0.5454153912482256]
effort: [0.0]
---
header: 
  seq: 1667
  stamp: 
    secs: 1383345576
    nsecs: 497485068
  frame_id: ''
name: ['mockarm_controller']
position: [0.46047021655366394]
velocity: [-0.4784573634787837]
effort: [0.0]
---
header: 
  seq: 1668
  stamp: 
    secs: 1383345576
    nsecs: 507427904
  frame_id: ''
name: ['mockarm_controller']
position: [0.45615925330123797]
velocity: [-0.4235570104564718]
effort: [0.0]
---
header: 
  seq: 1669
  stamp: 
    secs: 1383345576
    nsecs: 517487894
  frame_id: ''
name: ['mockarm_controller']
position: [0.4519879163889715]
velocity: [-0.4125135395833124]
effort: [0.0]
---
header: 
  seq: 1670
  stamp: 
    secs: 1383345576
    nsecs: 527486836
  frame_id: ''
name: ['mockarm_controller']
position: [0.4478689393542649]
velocity: [-0.40493285830776593]
effort: [0.0]
---
header: 
  seq: 1671
  stamp: 
    secs: 1383345576
    nsecs: 537487227
  frame_id: ''
name: ['mockarm_controller']
position: [0.4437325090270383]
velocity: [-0.4114622826247492]
effort: [0.0]
---
header: 
  seq: 1672
  stamp: 
    secs: 1383345576
    nsecs: 547724897
  frame_id: ''
name: ['mockarm_controller']
position: [0.43922955955689297]
velocity: [-0.43922644070867595]
effort: [0.0]
---
header: 
  seq: 1673
  stamp: 
    secs: 1383345576
    nsecs: 557486888
  frame_id: ''
name: ['mockarm_controller']
position: [0.4342030113111493]
velocity: [-0.5008018577008735]
effort: [0.0]
---
header: 
  seq: 1674
  stamp: 
    secs: 1383345576
    nsecs: 567484146
  frame_id: ''
name: ['mockarm_controller']
position: [0.4287226774598871]
velocity: [-0.5384489930499289]
effort: [0.0]
---
header: 
  seq: 1675
  stamp: 
    secs: 1383345576
    nsecs: 577486350
  frame_id: ''
name: ['mockarm_controller']
position: [0.4232423436086249]
velocity: [-0.5428222911313622]
effort: [0.0]
---
header: 
  seq: 1676
  stamp: 
    secs: 1383345576
    nsecs: 587486635
  frame_id: ''
name: ['mockarm_controller']
position: [0.4178667295124824]
velocity: [-0.5280563945130169]
effort: [0.0]
---
header: 
  seq: 1677
  stamp: 
    secs: 1383345576
    nsecs: 597486396
  frame_id: ''
name: ['mockarm_controller']
position: [0.4123514890761803]
velocity: [-0.5596388063218755]
effort: [0.0]
---
header: 
  seq: 1678
  stamp: 
    secs: 1383345576
    nsecs: 607484417
  frame_id: ''
name: ['mockarm_controller']
position: [0.406906061809958]
velocity: [-0.522142800481573]
effort: [0.0]
---
header: 
  seq: 1679
  stamp: 
    secs: 1383345576
    nsecs: 617486948
  frame_id: ''
name: ['mockarm_controller']
position: [0.40194932673429407]
velocity: [-0.4888781019492958]
effort: [0.0]
---
header: 
  seq: 1680
  stamp: 
    secs: 1383345576
    nsecs: 627486691
  frame_id: ''
name: ['mockarm_controller']
position: [0.3972718443389493]
velocity: [-0.4604727697720779]
effort: [0.0]
---
header: 
  seq: 1681
  stamp: 
    secs: 1383345576
    nsecs: 637486666
  frame_id: ''
name: ['mockarm_controller']
position: [0.39250709548100476]
velocity: [-0.4685102121872698]
effort: [0.0]
---
header: 
  seq: 1682
  stamp: 
    secs: 1383345576
    nsecs: 647420397
  frame_id: ''
name: ['mockarm_controller']
position: [0.3878470663781799]
velocity: [-0.4598410403419055]
effort: [0.0]
---
header: 
  seq: 1683
  stamp: 
    secs: 1383345576
    nsecs: 657484572
  frame_id: ''
name: ['mockarm_controller']
position: [0.38330921032299464]
velocity: [-0.44951521101389325]
effort: [0.0]
---
header: 
  seq: 1684
  stamp: 
    secs: 1383345576
    nsecs: 667486759
  frame_id: ''
name: ['mockarm_controller']
position: [0.3786142746351299]
velocity: [-0.4608752024997272]
effort: [0.0]
---
header: 
  seq: 1685
  stamp: 
    secs: 1383345576
    nsecs: 677485796
  frame_id: ''
name: ['mockarm_controller']
position: [0.37355281980434635]
velocity: [-0.5040787601616945]
effort: [0.0]
---
header: 
  seq: 1686
  stamp: 
    secs: 1383345576
    nsecs: 687486896
  frame_id: ''
name: ['mockarm_controller']
position: [0.36819465900072373]
velocity: [-0.5234112341137651]
effort: [0.0]
---
header: 
  seq: 1687
  stamp: 
    secs: 1383345576
    nsecs: 697482410
  frame_id: ''
name: ['mockarm_controller']
position: [0.36308084429238036]
velocity: [-0.5037744762430675]
effort: [0.0]
---
header: 
  seq: 1688
  stamp: 
    secs: 1383345576
    nsecs: 707487330
  frame_id: ''
name: ['mockarm_controller']
position: [0.3580019361690769]
velocity: [-0.5014719711002638]
effort: [0.0]
---
header: 
  seq: 1689
  stamp: 
    secs: 1383345576
    nsecs: 717483269
  frame_id: ''
name: ['mockarm_controller']
position: [0.35269613524301413]
velocity: [-0.5236676792403033]
effort: [0.0]
---
header: 
  seq: 1690
  stamp: 
    secs: 1383345576
    nsecs: 727486689
  frame_id: ''
name: ['mockarm_controller']
position: [0.3475299606571109]
velocity: [-0.5143030946643343]
effort: [0.0]
---
header: 
  seq: 1691
  stamp: 
    secs: 1383345576
    nsecs: 737482211
  frame_id: ''
name: ['mockarm_controller']
position: [0.34271285192160655]
velocity: [-0.47180301033343175]
effort: [0.0]
---
header: 
  seq: 1692
  stamp: 
    secs: 1383345576
    nsecs: 747494407
  frame_id: ''
name: ['mockarm_controller']
position: [0.337965556356182]
velocity: [-0.4681289385094745]
effort: [0.0]
---
header: 
  seq: 1693
  stamp: 
    secs: 1383345576
    nsecs: 757483369
  frame_id: ''
name: ['mockarm_controller']
position: [0.33295646140295826]
velocity: [-0.49355551810264203]
effort: [0.0]
---
header: 
  seq: 1694
  stamp: 
    secs: 1383345576
    nsecs: 767486496
  frame_id: ''
name: ['mockarm_controller']
position: [0.32796481974225444]
velocity: [-0.49270966940122557]
effort: [0.0]
---
header: 
  seq: 1695
  stamp: 
    secs: 1383345576
    nsecs: 777482777
  frame_id: ''
name: ['mockarm_controller']
position: [0.3232698840543897]
velocity: [-0.46470708580270426]
effort: [0.0]
---
header: 
  seq: 1696
  stamp: 
    secs: 1383345576
    nsecs: 787487075
  frame_id: ''
name: ['mockarm_controller']
position: [0.3183131489787258]
velocity: [-0.4874358418393067]
effort: [0.0]
---
header: 
  seq: 1697
  stamp: 
    secs: 1383345576
    nsecs: 797482152
  frame_id: ''
name: ['mockarm_controller']
position: [0.31309461451526277]
velocity: [-0.5189989521097009]
effort: [0.0]
---
header: 
  seq: 1698
  stamp: 
    secs: 1383345576
    nsecs: 807486699
  frame_id: ''
name: ['mockarm_controller']
position: [0.3079458932218795]
velocity: [-0.5151296941854212]
effort: [0.0]
---
header: 
  seq: 1699
  stamp: 
    secs: 1383345576
    nsecs: 817482607
  frame_id: ''
name: ['mockarm_controller']
position: [0.3031113311938552]
velocity: [-0.46869239244055183]
effort: [0.0]
---
header: 
  seq: 1700
  stamp: 
    secs: 1383345576
    nsecs: 827416793
  frame_id: ''
name: ['mockarm_controller']
position: [0.2981022362406315]
velocity: [-0.4914249929582767]
effort: [0.0]
---
header: 
  seq: 1701
  stamp: 
    secs: 1383345576
    nsecs: 837482395
  frame_id: ''
name: ['mockarm_controller']
position: [0.29283134189960863]
velocity: [-0.5199146124504682]
effort: [0.0]
---
header: 
  seq: 1702
  stamp: 
    secs: 1383345576
    nsecs: 847479708
  frame_id: ''
name: ['mockarm_controller']
position: [0.287787340361345]
velocity: [-0.4969949293786206]
effort: [0.0]
---
header: 
  seq: 1703
  stamp: 
    secs: 1383345576
    nsecs: 857512677
  frame_id: ''
name: ['mockarm_controller']
position: [0.2830225915034005]
velocity: [-0.4690175074263741]
effort: [0.0]
---
header: 
  seq: 1704
  stamp: 
    secs: 1383345576
    nsecs: 867488607
  frame_id: ''
name: ['mockarm_controller']
position: [0.2780309498426967]
velocity: [-0.49300164550160597]
effort: [0.0]
---
header: 
  seq: 1705
  stamp: 
    secs: 1383345576
    nsecs: 877416067
  frame_id: ''
name: ['mockarm_controller']
position: [0.2728996818418334]
velocity: [-0.5183622589012357]
effort: [0.0]
---
header: 
  seq: 1706
  stamp: 
    secs: 1383345576
    nsecs: 887422431
  frame_id: ''
name: ['mockarm_controller']
position: [0.2679778533512093]
velocity: [-0.47549304324452313]
effort: [0.0]
---
header: 
  seq: 1707
  stamp: 
    secs: 1383345576
    nsecs: 897422190
  frame_id: ''
name: ['mockarm_controller']
position: [0.2631956512007449]
velocity: [-0.4703651175828103]
effort: [0.0]
---
header: 
  seq: 1708
  stamp: 
    secs: 1383345576
    nsecs: 907479326
  frame_id: ''
name: ['mockarm_controller']
position: [0.25816910295500123]
velocity: [-0.4998059307689835]
effort: [0.0]
---
header: 
  seq: 1709
  stamp: 
    secs: 1383345576
    nsecs: 917416759
  frame_id: ''
name: ['mockarm_controller']
position: [0.25816910295500123]
velocity: [-0.4998059307689835]
effort: [0.0]
---
header: 
  seq: 1710
  stamp: 
    secs: 1383345576
    nsecs: 927489556
  frame_id: ''
name: ['mockarm_controller']
position: [0.25298547507657804]
velocity: [-0.513027303881947]
effort: [0.0]
---
header: 
  seq: 1711
  stamp: 
    secs: 1383345576
    nsecs: 937481150
  frame_id: ''
name: ['mockarm_controller']
position: [0.24801128670839423]
velocity: [-0.4893927949806973]
effort: [0.0]
---
header: 
  seq: 1712
  stamp: 
    secs: 1383345576
    nsecs: 947481394
  frame_id: ''
name: ['mockarm_controller']
position: [0.24315927138784998]
velocity: [-0.477983974046325]
effort: [0.0]
---
header: 
  seq: 1713
  stamp: 
    secs: 1383345576
    nsecs: 957428219
  frame_id: ''
name: ['mockarm_controller']
position: [0.23811526984958636]
velocity: [-0.5028914793881976]
effort: [0.0]
---
header: 
  seq: 1714
  stamp: 
    secs: 1383345576
    nsecs: 967421461
  frame_id: ''
name: ['mockarm_controller']
position: [0.2328792820936034]
velocity: [-0.5135838897482068]
effort: [0.0]
---
header: 
  seq: 1715
  stamp: 
    secs: 1383345576
    nsecs: 977412950
  frame_id: ''
name: ['mockarm_controller']
position: [0.22797490689549932]
velocity: [-0.4849095509298079]
effort: [0.0]
---
header: 
  seq: 1716
  stamp: 
    secs: 1383345576
    nsecs: 987419261
  frame_id: ''
name: ['mockarm_controller']
position: [0.2231752514525149]
velocity: [-0.4727792989543354]
effort: [0.0]
---
header: 
  seq: 1717
  stamp: 
    secs: 1383345576
    nsecs: 997425497
  frame_id: ''
name: ['mockarm_controller']
position: [0.2181312499142513]
velocity: [-0.49940609289738547]
effort: [0.0]
---
header: 
  seq: 1718
  stamp: 
    secs: 1383345577
    nsecs: 7490307
  frame_id: ''
name: ['mockarm_controller']
position: [0.2129301687433082]
velocity: [-0.5250435262409769]
effort: [0.0]
---
header: 
  seq: 1719
  stamp: 
    secs: 1383345577
    nsecs: 17485158
  frame_id: ''
name: ['mockarm_controller']
position: [0.20806070013024403]
velocity: [-0.4718934599345063]
effort: [0.0]
---
header: 
  seq: 1720
  stamp: 
    secs: 1383345577
    nsecs: 27487546
  frame_id: ''
name: ['mockarm_controller']
position: [0.20324359139473966]
velocity: [-0.47585782233570745]
effort: [0.0]
---
header: 
  seq: 1721
  stamp: 
    secs: 1383345577
    nsecs: 37426532
  frame_id: ''
name: ['mockarm_controller']
position: [0.19814722997891623]
velocity: [-0.5104017441986405]
effort: [0.0]
---
header: 
  seq: 1722
  stamp: 
    secs: 1383345577
    nsecs: 47487546
  frame_id: ''
name: ['mockarm_controller']
position: [0.1930159619780529]
velocity: [-0.505992308535976]
effort: [0.0]
---
header: 
  seq: 1723
  stamp: 
    secs: 1383345577
    nsecs: 57487224
  frame_id: ''
name: ['mockarm_controller']
position: [0.18814649336498873]
velocity: [-0.48573252998146343]
effort: [0.0]
---
header: 
  seq: 1724
  stamp: 
    secs: 1383345577
    nsecs: 67485321
  frame_id: ''
name: ['mockarm_controller']
position: [0.18334683792200432]
velocity: [-0.4746025356456456]
effort: [0.0]
---
header: 
  seq: 1725
  stamp: 
    secs: 1383345577
    nsecs: 77486699
  frame_id: ''
name: ['mockarm_controller']
position: [0.17826792979870082]
velocity: [-0.5162541292237751]
effort: [0.0]
---
header: 
  seq: 1726
  stamp: 
    secs: 1383345577
    nsecs: 87486648
  frame_id: ''
name: ['mockarm_controller']
position: [0.1731366617978375]
velocity: [-0.4977464352374946]
effort: [0.0]
---
header: 
  seq: 1727
  stamp: 
    secs: 1383345577
    nsecs: 97485274
  frame_id: ''
name: ['mockarm_controller']
position: [0.16826719318477332]
velocity: [-0.4865576152142457]
effort: [0.0]
---
header: 
  seq: 1728
  stamp: 
    secs: 1383345577
    nsecs: 107417393
  frame_id: ''
name: ['mockarm_controller']
position: [0.1633802712791892]
velocity: [-0.48486178247684536]
effort: [0.0]
---
header: 
  seq: 1729
  stamp: 
    secs: 1383345577
    nsecs: 117489848
  frame_id: ''
name: ['mockarm_controller']
position: [0.1582664565708458]
velocity: [-0.5081799372297929]
effort: [0.0]
---
header: 
  seq: 1730
  stamp: 
    secs: 1383345577
    nsecs: 127486474
  frame_id: ''
name: ['mockarm_controller']
position: [0.15311773527746253]
velocity: [-0.5115470733614762]
effort: [0.0]
---
header: 
  seq: 1731
  stamp: 
    secs: 1383345577
    nsecs: 137487763
  frame_id: ''
name: ['mockarm_controller']
position: [0.14826571995691828]
velocity: [-0.4808736690331264]
effort: [0.0]
---
header: 
  seq: 1732
  stamp: 
    secs: 1383345577
    nsecs: 147479586
  frame_id: ''
name: ['mockarm_controller']
position: [0.143431157928894]
velocity: [-0.49131727927076135]
effort: [0.0]
---
header: 
  seq: 1733
  stamp: 
    secs: 1383345577
    nsecs: 157484821
  frame_id: ''
name: ['mockarm_controller']
position: [0.13829988992803066]
velocity: [-0.49520054051952633]
effort: [0.0]
---
header: 
  seq: 1734
  stamp: 
    secs: 1383345577
    nsecs: 167486920
  frame_id: ''
name: ['mockarm_controller']
position: [0.13316862192716733]
velocity: [-0.5038558524021339]
effort: [0.0]
---
header: 
  seq: 1735
  stamp: 
    secs: 1383345577
    nsecs: 177486969
  frame_id: ''
name: ['mockarm_controller']
position: [0.12829915331410316]
velocity: [-0.48670350955164127]
effort: [0.0]
---
header: 
  seq: 1736
  stamp: 
    secs: 1383345577
    nsecs: 187487433
  frame_id: ''
name: ['mockarm_controller']
position: [0.12332496494591932]
velocity: [-0.498016456566263]
effort: [0.0]
---
header: 
  seq: 1737
  stamp: 
    secs: 1383345577
    nsecs: 197484251
  frame_id: ''
name: ['mockarm_controller']
position: [0.11815879036001611]
velocity: [-0.4956514041929589]
effort: [0.0]
---
header: 
  seq: 1738
  stamp: 
    secs: 1383345577
    nsecs: 207485726
  frame_id: ''
name: ['mockarm_controller']
position: [0.11306242894419266]
velocity: [-0.5020056556169674]
effort: [0.0]
---
header: 
  seq: 1739
  stamp: 
    secs: 1383345577
    nsecs: 217487677
  frame_id: ''
name: ['mockarm_controller']
position: [0.10821041362364843]
velocity: [-0.4837985163569879]
effort: [0.0]
---
header: 
  seq: 1740
  stamp: 
    secs: 1383345577
    nsecs: 227486664
  frame_id: ''
name: ['mockarm_controller']
position: [0.10334094501058425]
velocity: [-0.4829384719889105]
effort: [0.0]
---
header: 
  seq: 1741
  stamp: 
    secs: 1383345577
    nsecs: 237482931
  frame_id: ''
name: ['mockarm_controller']
position: [0.0981573171321611]
velocity: [-0.5125200591678021]
effort: [0.0]
---
header: 
  seq: 1742
  stamp: 
    secs: 1383345577
    nsecs: 247486317
  frame_id: ''
name: ['mockarm_controller']
position: [0.0930784090088576]
velocity: [-0.49846973435111386]
effort: [0.0]
---
header: 
  seq: 1743
  stamp: 
    secs: 1383345577
    nsecs: 257485978
  frame_id: ''
name: ['mockarm_controller']
position: [0.08826130027335324]
velocity: [-0.48535100609615645]
effort: [0.0]
---
header: 
  seq: 1744
  stamp: 
    secs: 1383345577
    nsecs: 267486308
  frame_id: ''
name: ['mockarm_controller']
position: [0.08319984544256968]
velocity: [-0.48579084660558214]
effort: [0.0]
---
header: 
  seq: 1745
  stamp: 
    secs: 1383345577
    nsecs: 277486554
  frame_id: ''
name: ['mockarm_controller']
position: [0.07810348402674624]
velocity: [-0.5066972972582461]
effort: [0.0]
---
header: 
  seq: 1746
  stamp: 
    secs: 1383345577
    nsecs: 287486190
  frame_id: ''
name: ['mockarm_controller']
position: [0.07305948248848264]
velocity: [-0.49626146578744657]
effort: [0.0]
---
header: 
  seq: 1747
  stamp: 
    secs: 1383345577
    nsecs: 297483332
  frame_id: ''
name: ['mockarm_controller']
position: [0.06824237375297829]
velocity: [-0.47708316683216323]
effort: [0.0]
---
header: 
  seq: 1748
  stamp: 
    secs: 1383345577
    nsecs: 307486099
  frame_id: ''
name: ['mockarm_controller']
position: [0.06323327879975456]
velocity: [-0.48931278237996756]
effort: [0.0]
---
header: 
  seq: 1749
  stamp: 
    secs: 1383345577
    nsecs: 317487442
  frame_id: ''
name: ['mockarm_controller']
position: [0.05806710421385134]
velocity: [-0.5088824454199387]
effort: [0.0]
---
header: 
  seq: 1750
  stamp: 
    secs: 1383345577
    nsecs: 327415088
  frame_id: ''
name: ['mockarm_controller']
position: [0.05305800926062762]
velocity: [-0.49453005757959534]
effort: [0.0]
---
header: 
  seq: 1751
  stamp: 
    secs: 1383345577
    nsecs: 337486303
  frame_id: ''
name: ['mockarm_controller']
position: [0.048188540647563435]
velocity: [-0.4919649033202854]
effort: [0.0]
---
header: 
  seq: 1752
  stamp: 
    secs: 1383345577
    nsecs: 347486519
  frame_id: ''
name: ['mockarm_controller']
position: [0.043179445694339715]
velocity: [-0.49565554652916294]
effort: [0.0]
---
header: 
  seq: 1753
  stamp: 
    secs: 1383345577
    nsecs: 357486265
  frame_id: ''
name: ['mockarm_controller']
position: [0.03799581781591655]
velocity: [-0.49996410864420954]
effort: [0.0]
---
header: 
  seq: 1754
  stamp: 
    secs: 1383345577
    nsecs: 367486415
  frame_id: ''
name: ['mockarm_controller']
position: [0.03298672286269283]
velocity: [-0.489743347010532]
effort: [0.0]
---
header: 
  seq: 1755
  stamp: 
    secs: 1383345577
    nsecs: 377488311
  frame_id: ''
name: ['mockarm_controller']
position: [0.02822197400474831]
velocity: [-0.47311576387096815]
effort: [0.0]
---
header: 
  seq: 1756
  stamp: 
    secs: 1383345577
    nsecs: 387487081
  frame_id: ''
name: ['mockarm_controller']
position: [0.023177972466484696]
velocity: [-0.49699492937861994]
effort: [0.0]
---
header: 
  seq: 1757
  stamp: 
    secs: 1383345577
    nsecs: 397499996
  frame_id: ''
name: ['mockarm_controller']
position: [0.020263272615654165]
velocity: [-0.2881561889105814]
effort: [0.0]
---
header: 
  seq: 1758
  stamp: 
    secs: 1383345577
    nsecs: 407486927
  frame_id: ''
name: ['mockarm_controller']
position: [0.020629791758572973]
velocity: [0.03596498311439583]
effort: [0.0]
---
header: 
  seq: 1759
  stamp: 
    secs: 1383345577
    nsecs: 417486714
  frame_id: ''
name: ['mockarm_controller']
position: [0.02022836603061428]
velocity: [-0.03984769981722193]
effort: [0.0]
---
header: 
  seq: 1760
  stamp: 
    secs: 1383345577
    nsecs: 427485806
  frame_id: ''
name: ['mockarm_controller']
position: [0.020176006153054447]
velocity: [-0.005138358936195504]
effort: [0.0]
---
header: 
  seq: 1761
  stamp: 
    secs: 1383345577
    nsecs: 437486311
  frame_id: ''
name: ['mockarm_controller']
position: [0.020350539078253883]
velocity: [0.017210622739319198]
effort: [0.0]
---
header: 
  seq: 1762
  stamp: 
    secs: 1383345577
    nsecs: 447486591
  frame_id: ''
name: ['mockarm_controller']
position: [0.021380283336930535]
velocity: [0.10419348969712154]
effort: [0.0]
---
header: 
  seq: 1763
  stamp: 
    secs: 1383345577
    nsecs: 457486284
  frame_id: ''
name: ['mockarm_controller']
position: [0.023282692221604357]
velocity: [0.18393202017536708]
effort: [0.0]
---
header: 
  seq: 1764
  stamp: 
    secs: 1383345577
    nsecs: 467487092
  frame_id: ''
name: ['mockarm_controller']
position: [0.024853488548399253]
velocity: [0.15434767876534303]
effort: [0.0]
---
header: 
  seq: 1765
  stamp: 
    secs: 1383345577
    nsecs: 477483306
  frame_id: ''
name: ['mockarm_controller']
position: [0.02548180707911721]
velocity: [0.062160519461610456]
effort: [0.0]
---
header: 
  seq: 1766
  stamp: 
    secs: 1383345577
    nsecs: 487486210
  frame_id: ''
name: ['mockarm_controller']
position: [0.02553416695667704]
velocity: [0.005152516980892414]
effort: [0.0]
---
header: 
  seq: 1767
  stamp: 
    secs: 1383345577
    nsecs: 497484551
  frame_id: ''
name: ['mockarm_controller']
position: [0.02542944720155738]
velocity: [-0.010346779480255003]
effort: [0.0]
---
header: 
  seq: 1768
  stamp: 
    secs: 1383345577
    nsecs: 507444845
  frame_id: ''
name: ['mockarm_controller']
position: [0.02506292805863857]
velocity: [-0.036096035347528845]
effort: [0.0]
---
header: 
  seq: 1769
  stamp: 
    secs: 1383345577
    nsecs: 517483703
  frame_id: ''
name: ['mockarm_controller']
position: [0.02441715623540067]
velocity: [-0.06380514012823844]
effort: [0.0]
---
header: 
  seq: 1770
  stamp: 
    secs: 1383345577
    nsecs: 527486944
  frame_id: ''
name: ['mockarm_controller']
position: [0.023753931119642826]
velocity: [-0.0654261730056076]
effort: [0.0]
---
header: 
  seq: 1771
  stamp: 
    secs: 1383345577
    nsecs: 537481490
  frame_id: ''
name: ['mockarm_controller']
position: [0.023439771854283847]
velocity: [-0.030893820961646102]
effort: [0.0]
---
header: 
  seq: 1772
  stamp: 
    secs: 1383345577
    nsecs: 547487570
  frame_id: ''
name: ['mockarm_controller']
position: [0.023404865269243957]
velocity: [-0.003451654804695865]
effort: [0.0]
---
header: 
  seq: 1773
  stamp: 
    secs: 1383345577
    nsecs: 557482292
  frame_id: ''
name: ['mockarm_controller']
position: [0.023404865269243957]
velocity: [0.0]
effort: [0.0]
---
header: 
  seq: 1774
  stamp: 
    secs: 1383345577
    nsecs: 567484541
  frame_id: ''
name: ['mockarm_controller']
position: [0.02345722514680379]
velocity: [0.005028318213755131]
effort: [0.0]
---
header: 
  seq: 1775
  stamp: 
    secs: 1383345577
    nsecs: 577481940
  frame_id: ''
name: ['mockarm_controller']
position: [0.023596851486963336]
velocity: [0.013741397515947908]
effort: [0.0]
---
header: 
  seq: 1776
  stamp: 
    secs: 1383345577
    nsecs: 587486298
  frame_id: ''
name: ['mockarm_controller']
position: [0.023719024534602937]
velocity: [0.01204506040023665]
effort: [0.0]
---
header: 
  seq: 1777
  stamp: 
    secs: 1383345577
    nsecs: 597482458
  frame_id: ''
name: ['mockarm_controller']
position: [0.023701571242082994]
velocity: [-0.0017186895637560714]
effort: [0.0]
---
header: 
  seq: 1778
  stamp: 
    secs: 1383345577
    nsecs: 607480407
  frame_id: ''
name: ['mockarm_controller']
position: [0.02368411794956305]
velocity: [-0.0017258274023477609]
effort: [0.0]
---
header: 
  seq: 1779
  stamp: 
    secs: 1383345577
    nsecs: 617483069
  frame_id: ''
name: ['mockarm_controller']
position: [0.02361430477948328]
velocity: [-0.006874081339087398]
effort: [0.0]
---
header: 
  seq: 1780
  stamp: 
    secs: 1383345577
    nsecs: 627487148
  frame_id: ''
name: ['mockarm_controller']
position: [0.02350958502436362]
velocity: [-0.010323319708168462]
effort: [0.0]
---
header: 
  seq: 1781
  stamp: 
    secs: 1383345577
    nsecs: 637482852
  frame_id: ''
name: ['mockarm_controller']
position: [0.023492131731843675]
velocity: [-0.0017212320039391425]
effort: [0.0]
---
header: 
  seq: 1782
  stamp: 
    secs: 1383345577
    nsecs: 647492634
  frame_id: ''
name: ['mockarm_controller']
position: [0.023492131731843675]
velocity: [0.0]
effort: [0.0]
---
header: 
  seq: 1783
  stamp: 
    secs: 1383345577
    nsecs: 657421345
  frame_id: ''
name: ['mockarm_controller']
position: [0.023492131731843675]
velocity: [0.0]
effort: [0.0]
---
header: 
  seq: 1784
  stamp: 
    secs: 1383345577
    nsecs: 667421618
  frame_id: ''
name: ['mockarm_controller']
position: [0.02352703831688356]
velocity: [0.003357370880050573]
effort: [0.0]
---
header: 
  seq: 1785
  stamp: 
    secs: 1383345577
    nsecs: 677428829
  frame_id: ''
name: ['mockarm_controller']
position: [0.023544491609403504]
velocity: [0.001728391019998307]
effort: [0.0]
---
header: 
  seq: 1786
  stamp: 
    secs: 1383345577
    nsecs: 687489730
  frame_id: ''
name: ['mockarm_controller']
position: [0.02352703831688356]
velocity: [-0.001716154623396549]
effort: [0.0]
---
header: 
  seq: 1787
  stamp: 
    secs: 1383345577
    nsecs: 697481182
  frame_id: ''
name: ['mockarm_controller']
position: [0.02352703831688356]
velocity: [0.0]
effort: [0.0]
---
header: 
  seq: 1788
  stamp: 
    secs: 1383345577
    nsecs: 707480092
  frame_id: ''
name: ['mockarm_controller']
position: [0.02350958502436362]
velocity: [-0.0017215715644054946]
effort: [0.0]
---
header: 
  seq: 1789
  stamp: 
    secs: 1383345577
    nsecs: 717509551
  frame_id: ''
name: ['mockarm_controller']
position: [0.02350958502436362]
velocity: [-0.0017215715644054946]
effort: [0.0]
---
header: 
  seq: 1790
  stamp: 
    secs: 1383345577
    nsecs: 727430370
  frame_id: ''
name: ['mockarm_controller']
position: [0.023492131731843675]
velocity: [-0.001728391019998307]
effort: [0.0]
---
header: 
  seq: 1791
  stamp: 
    secs: 1383345577
    nsecs: 737484879
  frame_id: ''
name: ['mockarm_controller']
position: [0.023492131731843675]
velocity: [0.0]
effort: [0.0]
---
header: 
  seq: 1792
  stamp: 
    secs: 1383345577
    nsecs: 747449212
  frame_id: ''
name: ['mockarm_controller']
position: [0.023492131731843675]
velocity: [0.0]
effort: [0.0]
---
header: 
  seq: 1793
  stamp: 
    secs: 1383345577
    nsecs: 757484062
  frame_id: ''
name: ['mockarm_controller']
position: [0.02350958502436362]
velocity: [0.0017178437519628845]
effort: [0.0]
---
header: 
  seq: 1794
  stamp: 
    secs: 1383345577
    nsecs: 767447484
  frame_id: ''
name: ['mockarm_controller']
position: [0.02350958502436362]
velocity: [0.0]
effort: [0.0]
---
header: 
  seq: 1795
  stamp: 
    secs: 1383345577
    nsecs: 777422094
  frame_id: ''
name: ['mockarm_controller']
position: [0.02350958502436362]
velocity: [0.0]
effort: [0.0]
---
header: 
  seq: 1796
  stamp: 
    secs: 1383345577
    nsecs: 787485047
  frame_id: ''
name: ['mockarm_controller']
position: [0.02350958502436362]
velocity: [0.0]
effort: [0.0]
---
header: 
  seq: 1797
  stamp: 
    secs: 1383345577
    nsecs: 797415053
  frame_id: ''
name: ['mockarm_controller']
position: [0.02350958502436362]
velocity: [0.0]
effort: [0.0]
---
header: 
  seq: 1798
  stamp: 
    secs: 1383345577
    nsecs: 807476670
  frame_id: ''
name: ['mockarm_controller']
position: [0.023492131731843675]
velocity: [-0.001727193717955755]
effort: [0.0]
---
header: 
  seq: 1799
  stamp: 
    secs: 1383345577
    nsecs: 817483868
  frame_id: ''
name: ['mockarm_controller']
position: [0.023492131731843675]
velocity: [0.0]
effort: [0.0]
---
header: 
  seq: 1800
  stamp: 
    secs: 1383345577
    nsecs: 827487387
  frame_id: ''
name: ['mockarm_controller']
position: [0.023492131731843675]
velocity: [0.0]
effort: [0.0]
---
header: 
  seq: 1801
  stamp: 
    secs: 1383345577
    nsecs: 837487505
  frame_id: ''
name: ['mockarm_controller']
position: [0.023492131731843675]
velocity: [0.0]
effort: [0.0]
---
header: 
  seq: 1802
  stamp: 
    secs: 1383345577
    nsecs: 847486864
  frame_id: ''
name: ['mockarm_controller']
position: [0.02350958502436362]
velocity: [0.0017302758520811843]
effort: [0.0]
---
header: 
  seq: 1803
  stamp: 
    secs: 1383345577
    nsecs: 857487287
  frame_id: ''
name: ['mockarm_controller']
position: [0.02350958502436362]
velocity: [0.0]
effort: [0.0]
---
header: 
  seq: 1804
  stamp: 
    secs: 1383345577
    nsecs: 867487466
  frame_id: ''
name: ['mockarm_controller']
position: [0.02350958502436362]
velocity: [0.0]
effort: [0.0]
---
header: 
  seq: 1805
  stamp: 
    secs: 1383345577
    nsecs: 877484673
  frame_id: ''
name: ['mockarm_controller']
position: [0.02350958502436362]
velocity: [0.0]
effort: [0.0]
---
header: 
  seq: 1806
  stamp: 
    secs: 1383345577
    nsecs: 887487931
  frame_id: ''
name: ['mockarm_controller']
position: [0.023492131731843675]
velocity: [-0.0017456783876718246]
effort: [0.0]
---
header: 
  seq: 1807
  stamp: 
    secs: 1383345577
    nsecs: 897415434
  frame_id: ''
name: ['mockarm_controller']
position: [0.023492131731843675]
velocity: [0.0]
effort: [0.0]
---
header: 
  seq: 1808
  stamp: 
    secs: 1383345577
    nsecs: 907488028
  frame_id: ''
name: ['mockarm_controller']
position: [0.023492131731843675]
velocity: [0.0]
effort: [0.0]
---
header: 
  seq: 1809
  stamp: 
    secs: 1383345577
    nsecs: 917484650
  frame_id: ''
name: ['mockarm_controller']
position: [0.023492131731843675]
velocity: [0.0]
effort: [0.0]
---
header: 
  seq: 1810
  stamp: 
    secs: 1383345577
    nsecs: 927487211
  frame_id: ''
name: ['mockarm_controller']
position: [0.023492131731843675]
velocity: [0.0]
effort: [0.0]
---
header: 
  seq: 1811
  stamp: 
    secs: 1383345577
    nsecs: 937484390
  frame_id: ''
name: ['mockarm_controller']
position: [0.023492131731843675]
velocity: [0.0]
effort: [0.0]
---
header: 
  seq: 1812
  stamp: 
    secs: 1383345577
    nsecs: 947487205
  frame_id: ''
name: ['mockarm_controller']
position: [0.02350958502436362]
velocity: [0.0017176746894934458]
effort: [0.0]
---
header: 
  seq: 1813
  stamp: 
    secs: 1383345577
    nsecs: 957487530
  frame_id: ''
name: ['mockarm_controller']
position: [0.02350958502436362]
velocity: [0.0]
effort: [0.0]
---
header: 
  seq: 1814
  stamp: 
    secs: 1383345577
    nsecs: 967486041
  frame_id: ''
name: ['mockarm_controller']
position: [0.023492131731843675]
velocity: [-0.0017232713783513925]
effort: [0.0]
---
header: 
  seq: 1815
  stamp: 
    secs: 1383345577
    nsecs: 977486844
  frame_id: ''
name: ['mockarm_controller']
position: [0.023492131731843675]
velocity: [0.0]
effort: [0.0]
---
header: 
  seq: 1816
  stamp: 
    secs: 1383345577
    nsecs: 987415110
  frame_id: ''
name: ['mockarm_controller']
position: [0.023492131731843675]
velocity: [0.0]
effort: [0.0]
---
header: 
  seq: 1817
  stamp: 
    secs: 1383345577
    nsecs: 997414522
  frame_id: ''
name: ['mockarm_controller']
position: [0.023492131731843675]
velocity: [0.0]
effort: [0.0]
---
header: 
  seq: 1818
  stamp: 
    secs: 1383345578
    nsecs: 7487363
  frame_id: ''
name: ['mockarm_controller']
position: [0.023492131731843675]
velocity: [0.0]
effort: [0.0]
---
header: 
  seq: 1819
  stamp: 
    secs: 1383345578
    nsecs: 17483895
  frame_id: ''
name: ['mockarm_controller']
position: [0.023492131731843675]
velocity: [0.0]
effort: [0.0]
---
header: 
  seq: 1820
  stamp: 
    secs: 1383345578
    nsecs: 27487440
  frame_id: ''
name: ['mockarm_controller']
position: [0.023492131731843675]
velocity: [0.0]
effort: [0.0]
---
header: 
  seq: 1821
  stamp: 
    secs: 1383345578
    nsecs: 37484653
  frame_id: ''
name: ['mockarm_controller']
position: [0.023492131731843675]
velocity: [0.0]
effort: [0.0]
---
header: 
  seq: 1822
  stamp: 
    secs: 1383345578
    nsecs: 47486937
  frame_id: ''
name: ['mockarm_controller']
position: [0.023492131731843675]
velocity: [0.0]
effort: [0.0]
---
header: 
  seq: 1823
  stamp: 
    secs: 1383345578
    nsecs: 57483854
  frame_id: ''
name: ['mockarm_controller']
position: [0.023492131731843675]
velocity: [0.0]
effort: [0.0]
---
header: 
  seq: 1824
  stamp: 
    secs: 1383345578
    nsecs: 67488035
  frame_id: ''
name: ['mockarm_controller']
position: [0.023492131731843675]
velocity: [0.0]
effort: [0.0]
---
header: 
  seq: 1825
  stamp: 
    secs: 1383345578
    nsecs: 77483619
  frame_id: ''
name: ['mockarm_controller']
position: [0.023492131731843675]
velocity: [0.0]
effort: [0.0]
---
header: 
  seq: 1826
  stamp: 
    secs: 1383345578
    nsecs: 87479016
  frame_id: ''
name: ['mockarm_controller']
position: [0.023492131731843675]
velocity: [0.0]
effort: [0.0]
---
header: 
  seq: 1827
  stamp: 
    secs: 1383345578
    nsecs: 97495191
  frame_id: ''
name: ['mockarm_controller']
position: [0.023492131731843675]
velocity: [0.0]
effort: [0.0]
---
header: 
  seq: 1828
  stamp: 
    secs: 1383345578
    nsecs: 107483292
  frame_id: ''
name: ['mockarm_controller']
position: [0.023492131731843675]
velocity: [0.0]
effort: [0.0]
---
header: 
  seq: 1829
  stamp: 
    secs: 1383345578
    nsecs: 117484708
  frame_id: ''
name: ['mockarm_controller']
position: [0.023492131731843675]
velocity: [0.0]
effort: [0.0]
---
header: 
  seq: 1830
  stamp: 
    secs: 1383345578
    nsecs: 127486729
  frame_id: ''
name: ['mockarm_controller']
position: [0.023492131731843675]
velocity: [0.0]
effort: [0.0]
---
header: 
  seq: 1831
  stamp: 
    secs: 1383345578
    nsecs: 137483431
  frame_id: ''
name: ['mockarm_controller']
position: [0.023492131731843675]
velocity: [0.0]
effort: [0.0]
---
header: 
  seq: 1832
  stamp: 
    secs: 1383345578
    nsecs: 147485252
  frame_id: ''
name: ['mockarm_controller']
position: [0.023492131731843675]
velocity: [0.0]
effort: [0.0]
---
header: 
  seq: 1833
  stamp: 
    secs: 1383345578
    nsecs: 157482498
  frame_id: ''
name: ['mockarm_controller']
position: [0.023492131731843675]
velocity: [0.0]
effort: [0.0]
---
header: 
  seq: 1834
  stamp: 
    secs: 1383345578
    nsecs: 167485344
  frame_id: ''
name: ['mockarm_controller']
position: [0.023492131731843675]
velocity: [0.0]
effort: [0.0]
---
header: 
  seq: 1835
  stamp: 
    secs: 1383345578
    nsecs: 177482057
  frame_id: ''
name: ['mockarm_controller']
position: [0.023492131731843675]
velocity: [0.0]
effort: [0.0]
---
header: 
  seq: 1836
  stamp: 
    secs: 1383345578
    nsecs: 187485468
  frame_id: ''
name: ['mockarm_controller']
position: [0.023492131731843675]
velocity: [0.0]
effort: [0.0]
---
header: 
  seq: 1837
  stamp: 
    secs: 1383345578
    nsecs: 197481800
  frame_id: ''
name: ['mockarm_controller']
position: [0.023492131731843675]
velocity: [0.0]
effort: [0.0]
---
header: 
  seq: 1838
  stamp: 
    secs: 1383345578
    nsecs: 207485370
  frame_id: ''
name: ['mockarm_controller']
position: [0.023492131731843675]
velocity: [0.0]
effort: [0.0]
---
header: 
  seq: 1839
  stamp: 
    secs: 1383345578
    nsecs: 217483551
  frame_id: ''
name: ['mockarm_controller']
position: [0.023492131731843675]
velocity: [0.0]
effort: [0.0]
---
header: 
  seq: 1840
  stamp: 
    secs: 1383345578
    nsecs: 227479810
  frame_id: ''
name: ['mockarm_controller']
position: [0.023492131731843675]
velocity: [0.0]
effort: [0.0]
---
header: 
  seq: 1841
  stamp: 
    secs: 1383345578
    nsecs: 237482665
  frame_id: ''
name: ['mockarm_controller']
position: [0.023492131731843675]
velocity: [0.0]
effort: [0.0]
---
header: 
  seq: 1842
  stamp: 
    secs: 1383345578
    nsecs: 247486671
  frame_id: ''
name: ['mockarm_controller']
position: [0.023492131731843675]
velocity: [0.0]
effort: [0.0]
---
header: 
  seq: 1843
  stamp: 
    secs: 1383345578
    nsecs: 257483635
  frame_id: ''
name: ['mockarm_controller']
position: [0.023492131731843675]
velocity: [0.0]
effort: [0.0]
---
header: 
  seq: 1844
  stamp: 
    secs: 1383345578
    nsecs: 267487134
  frame_id: ''
name: ['mockarm_controller']
position: [0.023492131731843675]
velocity: [0.0]
effort: [0.0]
---
header: 
  seq: 1845
  stamp: 
    secs: 1383345578
    nsecs: 277482831
  frame_id: ''
name: ['mockarm_controller']
position: [0.023492131731843675]
velocity: [0.0]
effort: [0.0]
---
header: 
  seq: 1846
  stamp: 
    secs: 1383345578
    nsecs: 287487364
  frame_id: ''
name: ['mockarm_controller']
position: [0.023492131731843675]
velocity: [0.0]
effort: [0.0]
---
header: 
  seq: 1847
  stamp: 
    secs: 1383345578
    nsecs: 297482937
  frame_id: ''
name: ['mockarm_controller']
position: [0.023492131731843675]
velocity: [0.0]
effort: [0.0]
---
header: 
  seq: 1848
  stamp: 
    secs: 1383345578
    nsecs: 307486248
  frame_id: ''
name: ['mockarm_controller']
position: [0.023492131731843675]
velocity: [0.0]
effort: [0.0]
---
header: 
  seq: 1849
  stamp: 
    secs: 1383345578
    nsecs: 317482561
  frame_id: ''
name: ['mockarm_controller']
position: [0.023492131731843675]
velocity: [0.0]
effort: [0.0]
---
header: 
  seq: 1850
  stamp: 
    secs: 1383345578
    nsecs: 327486520
  frame_id: ''
name: ['mockarm_controller']
position: [0.023492131731843675]
velocity: [0.0]
effort: [0.0]
---
header: 
  seq: 1851
  stamp: 
    secs: 1383345578
    nsecs: 337482981
  frame_id: ''
name: ['mockarm_controller']
position: [0.023492131731843675]
velocity: [0.0]
effort: [0.0]
---
header: 
  seq: 1852
  stamp: 
    secs: 1383345578
    nsecs: 347486671
  frame_id: ''
name: ['mockarm_controller']
position: [0.023492131731843675]
velocity: [0.0]
effort: [0.0]
---
header: 
  seq: 1853
  stamp: 
    secs: 1383345578
    nsecs: 357482491
  frame_id: ''
name: ['mockarm_controller']
position: [0.023492131731843675]
velocity: [0.0]
effort: [0.0]
---
header: 
  seq: 1854
  stamp: 
    secs: 1383345578
    nsecs: 367432527
  frame_id: ''
name: ['mockarm_controller']
position: [0.023492131731843675]
velocity: [0.0]
effort: [0.0]
---
header: 
  seq: 1855
  stamp: 
    secs: 1383345578
    nsecs: 379342390
  frame_id: ''
name: ['mockarm_controller']
position: [0.023492131731843675]
velocity: [0.0]
effort: [0.0]
---
header: 
  seq: 1856
  stamp: 
    secs: 1383345578
    nsecs: 387485965
  frame_id: ''
name: ['mockarm_controller']
position: [0.023492131731843675]
velocity: [0.0]
effort: [0.0]
---
header: 
  seq: 1857
  stamp: 
    secs: 1383345578
    nsecs: 397482382
  frame_id: ''
name: ['mockarm_controller']
position: [0.025516713664157097]
velocity: [0.1993679893957087]
effort: [0.0]
---
header: 
  seq: 1858
  stamp: 
    secs: 1383345578
    nsecs: 407486528
  frame_id: ''
name: ['mockarm_controller']
position: [0.030176742766981957]
velocity: [0.4606137296456321]
effort: [0.0]
---
header: 
  seq: 1859
  stamp: 
    secs: 1383345578
    nsecs: 417482937
  frame_id: ''
name: ['mockarm_controller']
position: [0.03420845333908886]
velocity: [0.4111892475376751]
effort: [0.0]
---
header: 
  seq: 1860
  stamp: 
    secs: 1383345578
    nsecs: 427421654
  frame_id: ''
name: ['mockarm_controller']
position: [0.03824016391119576]
velocity: [0.388598609359701]
effort: [0.0]
---
header: 
  seq: 1861
  stamp: 
    secs: 1383345578
    nsecs: 437423458
  frame_id: ''
name: ['mockarm_controller']
position: [0.043877577395137445]
velocity: [0.5489739491617184]
effort: [0.0]
---
header: 
  seq: 1862
  stamp: 
    secs: 1383345578
    nsecs: 447487400
  frame_id: ''
name: ['mockarm_controller']
position: [0.050876347695634705]
velocity: [0.6912365728886183]
effort: [0.0]
---
header: 
  seq: 1863
  stamp: 
    secs: 1383345578
    nsecs: 457480407
  frame_id: ''
name: ['mockarm_controller']
position: [0.05777039824101231]
velocity: [0.6798195982030967]
effort: [0.0]
---
header: 
  seq: 1864
  stamp: 
    secs: 1383345578
    nsecs: 467490556
  frame_id: ''
name: ['mockarm_controller']
position: [0.06433283622851099]
velocity: [0.6539549564024599]
effort: [0.0]
---
header: 
  seq: 1865
  stamp: 
    secs: 1383345578
    nsecs: 477416006
  frame_id: ''
name: ['mockarm_controller']
position: [0.07049384848805097]
velocity: [0.6065182377968085]
effort: [0.0]
---
header: 
  seq: 1866
  stamp: 
    secs: 1383345578
    nsecs: 487417938
  frame_id: ''
name: ['mockarm_controller']
position: [0.0763930613597918]
velocity: [0.5964825957270813]
effort: [0.0]
---
header: 
  seq: 1867
  stamp: 
    secs: 1383345578
    nsecs: 497489276
  frame_id: ''
name: ['mockarm_controller']
position: [0.08180358204097422]
velocity: [0.5219487440847403]
effort: [0.0]
---
header: 
  seq: 1868
  stamp: 
    secs: 1383345578
    nsecs: 507425149
  frame_id: ''
name: ['mockarm_controller']
position: [0.08180358204097422]
velocity: [0.5219487440847403]
effort: [0.0]
---
header: 
  seq: 1869
  stamp: 
    secs: 1383345578
    nsecs: 517481668
  frame_id: ''
name: ['mockarm_controller']
position: [0.08635889138867943]
velocity: [0.44844549593475147]
effort: [0.0]
---
header: 
  seq: 1870
  stamp: 
    secs: 1383345578
    nsecs: 527489797
  frame_id: ''
name: ['mockarm_controller']
position: [0.09047786842338604]
velocity: [0.4094410571278935]
effort: [0.0]
---
header: 
  seq: 1871
  stamp: 
    secs: 1383345578
    nsecs: 537480604
  frame_id: ''
name: ['mockarm_controller']
position: [0.09456193887305277]
velocity: [0.4033251481006053]
effort: [0.0]
---
header: 
  seq: 1872
  stamp: 
    secs: 1383345578
    nsecs: 547420541
  frame_id: ''
name: ['mockarm_controller']
position: [0.09871582249279928]
velocity: [0.4193300645817197]
effort: [0.0]
---
header: 
  seq: 1873
  stamp: 
    secs: 1383345578
    nsecs: 557432268
  frame_id: ''
name: ['mockarm_controller']
position: [0.10278243964994606]
velocity: [0.39401387047251]
effort: [0.0]
---
header: 
  seq: 1874
  stamp: 
    secs: 1383345578
    nsecs: 567491213
  frame_id: ''
name: ['mockarm_controller']
position: [0.10725048253505155]
velocity: [0.44033141668527587]
effort: [0.0]
---
header: 
  seq: 1875
  stamp: 
    secs: 1383345578
    nsecs: 577479691
  frame_id: ''
name: ['mockarm_controller']
position: [0.11234684395087499]
velocity: [0.5028973175274758]
effort: [0.0]
---
header: 
  seq: 1876
  stamp: 
    secs: 1383345578
    nsecs: 587430827
  frame_id: ''
name: ['mockarm_controller']
position: [0.1177922712170973]
velocity: [0.54993206081825]
effort: [0.0]
---
header: 
  seq: 1877
  stamp: 
    secs: 1383345578
    nsecs: 597486069
  frame_id: ''
name: ['mockarm_controller']
position: [0.12306316555812018]
velocity: [0.5077443734729674]
effort: [0.0]
---
header: 
  seq: 1878
  stamp: 
    secs: 1383345578
    nsecs: 607482113
  frame_id: ''
name: ['mockarm_controller']
position: [0.1284387796542627]
velocity: [0.5283678097250369]
effort: [0.0]
---
header: 
  seq: 1879
  stamp: 
    secs: 1383345578
    nsecs: 617484027
  frame_id: ''
name: ['mockarm_controller']
position: [0.1340412865531645]
velocity: [0.5604188155348399]
effort: [0.0]
---
header: 
  seq: 1880
  stamp: 
    secs: 1383345578
    nsecs: 627486927
  frame_id: ''
name: ['mockarm_controller']
position: [0.13945180723434691]
velocity: [0.5331087477763738]
effort: [0.0]
---
header: 
  seq: 1881
  stamp: 
    secs: 1383345578
    nsecs: 637483736
  frame_id: ''
name: ['mockarm_controller']
position: [0.1444783554800906]
velocity: [0.5005525040573288]
effort: [0.0]
---
header: 
  seq: 1882
  stamp: 
    secs: 1383345578
    nsecs: 647445768
  frame_id: ''
name: ['mockarm_controller']
position: [0.14941763726323454]
velocity: [0.4896195264813569]
effort: [0.0]
---
header: 
  seq: 1883
  stamp: 
    secs: 1383345578
    nsecs: 657484500
  frame_id: ''
name: ['mockarm_controller']
position: [0.1544441855089782]
velocity: [0.4960083131777845]
effort: [0.0]
---
header: 
  seq: 1884
  stamp: 
    secs: 1383345578
    nsecs: 667428471
  frame_id: ''
name: ['mockarm_controller']
position: [0.15919148107440279]
velocity: [0.4699362072287251]
effort: [0.0]
---
header: 
  seq: 1885
  stamp: 
    secs: 1383345578
    nsecs: 677488520
  frame_id: ''
name: ['mockarm_controller']
position: [0.16378169700714787]
velocity: [0.45210439601547175]
effort: [0.0]
---
header: 
  seq: 1886
  stamp: 
    secs: 1383345578
    nsecs: 687487391
  frame_id: ''
name: ['mockarm_controller']
position: [0.16865116562021207]
velocity: [0.4813630499272636]
effort: [0.0]
---
header: 
  seq: 1887
  stamp: 
    secs: 1383345578
    nsecs: 697483658
  frame_id: ''
name: ['mockarm_controller']
position: [0.1736253539883959]
velocity: [0.48828785394952734]
effort: [0.0]
---
header: 
  seq: 1888
  stamp: 
    secs: 1383345578
    nsecs: 707487709
  frame_id: ''
name: ['mockarm_controller']
position: [0.17859954235657974]
velocity: [0.4884796590576289]
effort: [0.0]
---
header: 
  seq: 1889
  stamp: 
    secs: 1383345578
    nsecs: 717458149
  frame_id: ''
name: ['mockarm_controller']
position: [0.18345155767712398]
velocity: [0.47873856147451854]
effort: [0.0]
---
header: 
  seq: 1890
  stamp: 
    secs: 1383345578
    nsecs: 727485791
  frame_id: ''
name: ['mockarm_controller']
position: [0.18847810592286765]
velocity: [0.5003033986009423]
effort: [0.0]
---
header: 
  seq: 1891
  stamp: 
    secs: 1383345578
    nsecs: 737479310
  frame_id: ''
name: ['mockarm_controller']
position: [0.1938537200190102]
velocity: [0.5281082715534473]
effort: [0.0]
---
header: 
  seq: 1892
  stamp: 
    secs: 1383345578
    nsecs: 747415391
  frame_id: ''
name: ['mockarm_controller']
position: [0.19888026826475386]
velocity: [0.4997065558945886]
effort: [0.0]
---
header: 
  seq: 1893
  stamp: 
    secs: 1383345578
    nsecs: 757482524
