header: 
  seq: 1773
  stamp: 
    secs: 1383345824
    nsecs: 91484861
  frame_id: ''
name: ['mockarm_controller']
position: [-0.009896016858807848]
velocity: [-0.0017222510874228248]
effort: [0.0]
---
header: 
  seq: 1774
  stamp: 
    secs: 1383345824
    nsecs: 101484917
  frame_id: ''
name: ['mockarm_controller']
position: [-0.009896016858807848]
velocity: [0.0]
effort: [0.0]
---
header: 
  seq: 1775
  stamp: 
    secs: 1383345824
    nsecs: 111545860
  frame_id: ''
name: ['mockarm_controller']
position: [-0.009913470151327791]
velocity: [-0.0017229311470822214]
effort: [0.0]
---
header: 
  seq: 1776
  stamp: 
    secs: 1383345824
    nsecs: 121539723
  frame_id: ''
name: ['mockarm_controller']
position: [-0.009930923443847734]
velocity: [-0.0017249745522774167]
effort: [0.0]
---
header: 
  seq: 1777
  stamp: 
    secs: 1383345824
    nsecs: 131545041
  frame_id: ''
name: ['mockarm_controller']
position: [-0.009930923443847734]
velocity: [0.0]
effort: [0.0]
---
header: 
  seq: 1778
  stamp: 
    secs: 1383345824
    nsecs: 141473186
  frame_id: ''
name: ['mockarm_controller']
position: [-0.009948376736367679]
velocity: [-0.0017207229143196923]
effort: [0.0]
---
header: 
  seq: 1779
  stamp: 
    secs: 1383345824
    nsecs: 151472584
  frame_id: ''
name: ['mockarm_controller']
position: [-0.009948376736367679]
velocity: [0.0]
effort: [0.0]
---
header: 
  seq: 1780
  stamp: 
    secs: 1383345824
    nsecs: 161512006
  frame_id: ''
name: ['mockarm_controller']
position: [-0.009948376736367679]
velocity: [0.0]
effort: [0.0]
---
header: 
  seq: 1781
  stamp: 
    secs: 1383345824
    nsecs: 171555540
  frame_id: ''
name: ['mockarm_controller']
position: [-0.009948376736367679]
velocity: [0.0]
effort: [0.0]
---
header: 
  seq: 1782
  stamp: 
    secs: 1383345824
    nsecs: 181547748
  frame_id: ''
name: ['mockarm_controller']
position: [-0.009948376736367679]
velocity: [0.0]
effort: [0.0]
---
header: 
  seq: 1783
  stamp: 
    secs: 1383345824
    nsecs: 191546809
  frame_id: ''
name: ['mockarm_controller']
position: [-0.009948376736367679]
velocity: [0.0]
effort: [0.0]
---
header: 
  seq: 1784
  stamp: 
    secs: 1383345824
    nsecs: 201544215
  frame_id: ''
name: ['mockarm_controller']
position: [-0.009965830028887622]
velocity: [-0.0017294186008663202]
effort: [0.0]
---
header: 
  seq: 1785
  stamp: 
    secs: 1383345824
    nsecs: 211546847
  frame_id: ''
name: ['mockarm_controller']
position: [-0.009965830028887622]
velocity: [0.0]
effort: [0.0]
---
header: 
  seq: 1786
  stamp: 
    secs: 1383345824
    nsecs: 221547518
  frame_id: ''
name: ['mockarm_controller']
position: [-0.009965830028887622]
velocity: [0.0]
effort: [0.0]
---
header: 
  seq: 1787
  stamp: 
    secs: 1383345824
    nsecs: 231544620
  frame_id: ''
name: ['mockarm_controller']
position: [-0.009965830028887622]
velocity: [0.0]
effort: [0.0]
---
header: 
  seq: 1788
  stamp: 
    secs: 1383345824
    nsecs: 241545070
  frame_id: ''
name: ['mockarm_controller']
position: [-0.009965830028887622]
velocity: [0.0]
effort: [0.0]
---
header: 
  seq: 1789
  stamp: 
    secs: 1383345824
    nsecs: 251563463
  frame_id: ''
name: ['mockarm_controller']
position: [-0.009965830028887622]
velocity: [0.0]
effort: [0.0]
---
header: 
  seq: 1790
  stamp: 
    secs: 1383345824
    nsecs: 261477120
  frame_id: ''
name: ['mockarm_controller']
position: [-0.009965830028887622]
velocity: [0.0]
effort: [0.0]
---
header: 
  seq: 1791
  stamp: 
    secs: 1383345824
    nsecs: 271540972
  frame_id: ''
name: ['mockarm_controller']
position: [-0.009965830028887622]
velocity: [0.0]
effort: [0.0]
---
header: 
  seq: 1792
  stamp: 
    secs: 1383345824
    nsecs: 281547034
  frame_id: ''
name: ['mockarm_controller']
position: [-0.009965830028887622]
velocity: [0.0]
effort: [0.0]
---
header: 
  seq: 1793
  stamp: 
    secs: 1383345824
    nsecs: 291547281
  frame_id: ''
name: ['mockarm_controller']
position: [-0.009965830028887622]
velocity: [0.0]
effort: [0.0]
---
header: 
  seq: 1794
  stamp: 
    secs: 1383345824
    nsecs: 301542360
  frame_id: ''
name: ['mockarm_controller']
position: [-0.009965830028887622]
velocity: [0.0]
effort: [0.0]
---
header: 
  seq: 1795
  stamp: 
    secs: 1383345824
    nsecs: 311545225
  frame_id: ''
name: ['mockarm_controller']
position: [-0.009965830028887622]
velocity: [0.0]
effort: [0.0]
---
header: 
  seq: 1796
  stamp: 
    secs: 1383345824
    nsecs: 321547200
  frame_id: ''
name: ['mockarm_controller']
position: [-0.009965830028887622]
velocity: [0.0]
effort: [0.0]
---
header: 
  seq: 1797
  stamp: 
    secs: 1383345824
    nsecs: 331547070
  frame_id: ''
name: ['mockarm_controller']
position: [-0.009965830028887622]
velocity: [0.0]
effort: [0.0]
---
header: 
  seq: 1798
  stamp: 
    secs: 1383345824
    nsecs: 341544624
  frame_id: ''
name: ['mockarm_controller']
position: [-0.009965830028887622]
velocity: [0.0]
effort: [0.0]
---
header: 
  seq: 1799
  stamp: 
    secs: 1383345824
    nsecs: 351547684
  frame_id: ''
name: ['mockarm_controller']
position: [-0.009965830028887622]
velocity: [0.0]
effort: [0.0]
---
header: 
  seq: 1800
  stamp: 
    secs: 1383345824
    nsecs: 361561768
  frame_id: ''
name: ['mockarm_controller']
position: [-0.009965830028887622]
velocity: [0.0]
effort: [0.0]
---
header: 
  seq: 1801
  stamp: 
    secs: 1383345824
    nsecs: 371567807
  frame_id: ''
name: ['mockarm_controller']
position: [-0.009965830028887622]
velocity: [0.0]
effort: [0.0]
---
header: 
  seq: 1802
  stamp: 
    secs: 1383345824
    nsecs: 381547666
  frame_id: ''
name: ['mockarm_controller']
position: [-0.009948376736367679]
velocity: [0.001719366813116235]
effort: [0.0]
---
header: 
  seq: 1803
  stamp: 
    secs: 1383345824
    nsecs: 391547007
  frame_id: ''
name: ['mockarm_controller']
position: [-0.009948376736367679]
velocity: [0.0]
effort: [0.0]
---
header: 
  seq: 1804
  stamp: 
    secs: 1383345824
    nsecs: 401544327
  frame_id: ''
name: ['mockarm_controller']
position: [-0.009948376736367679]
velocity: [0.0]
effort: [0.0]
---
header: 
  seq: 1805
  stamp: 
    secs: 1383345824
    nsecs: 411547283
  frame_id: ''
name: ['mockarm_controller']
position: [-0.009948376736367679]
velocity: [0.0]
effort: [0.0]
---
header: 
  seq: 1806
  stamp: 
    secs: 1383345824
    nsecs: 421547886
  frame_id: ''
name: ['mockarm_controller']
position: [-0.009948376736367679]
velocity: [0.0]
effort: [0.0]
---
header: 
  seq: 1807
  stamp: 
    secs: 1383345824
    nsecs: 431546636
  frame_id: ''
name: ['mockarm_controller']
position: [-0.009948376736367679]
velocity: [0.0]
effort: [0.0]
---
header: 
  seq: 1808
  stamp: 
    secs: 1383345824
    nsecs: 441543082
  frame_id: ''
name: ['mockarm_controller']
position: [-0.009948376736367679]
velocity: [0.0]
effort: [0.0]
---
header: 
  seq: 1809
  stamp: 
    secs: 1383345824
    nsecs: 451547109
  frame_id: ''
name: ['mockarm_controller']
position: [-0.009948376736367679]
velocity: [0.0]
effort: [0.0]
---
header: 
  seq: 1810
  stamp: 
    secs: 1383345824
    nsecs: 461542697
  frame_id: ''
name: ['mockarm_controller']
position: [-0.009948376736367679]
velocity: [0.0]
effort: [0.0]
---
header: 
  seq: 1811
  stamp: 
    secs: 1383345824
    nsecs: 471548025
  frame_id: ''
name: ['mockarm_controller']
position: [-0.009948376736367679]
velocity: [0.0]
effort: [0.0]
---
header: 
  seq: 1812
  stamp: 
    secs: 1383345824
    nsecs: 481545123
  frame_id: ''
name: ['mockarm_controller']
position: [-0.009948376736367679]
velocity: [0.0]
effort: [0.0]
---
header: 
  seq: 1813
  stamp: 
    secs: 1383345824
    nsecs: 491547230
  frame_id: ''
name: ['mockarm_controller']
position: [-0.009948376736367679]
velocity: [0.0]
effort: [0.0]
---
header: 
  seq: 1814
  stamp: 
    secs: 1383345824
    nsecs: 501545309
  frame_id: ''
name: ['mockarm_controller']
position: [-0.009948376736367679]
velocity: [0.0]
effort: [0.0]
---
header: 
  seq: 1815
  stamp: 
    secs: 1383345824
    nsecs: 511547062
  frame_id: ''
name: ['mockarm_controller']
position: [-0.009948376736367679]
velocity: [0.0]
effort: [0.0]
---
header: 
  seq: 1816
  stamp: 
    secs: 1383345824
    nsecs: 521546885
  frame_id: ''
name: ['mockarm_controller']
position: [-0.009948376736367679]
velocity: [0.0]
effort: [0.0]
---
header: 
  seq: 1817
  stamp: 
    secs: 1383345824
    nsecs: 531547833
  frame_id: ''
name: ['mockarm_controller']
position: [-0.009948376736367679]
velocity: [0.0]
effort: [0.0]
---
header: 
  seq: 1818
  stamp: 
    secs: 1383345824
    nsecs: 541545308
  frame_id: ''
name: ['mockarm_controller']
position: [-0.009948376736367679]
velocity: [0.0]
effort: [0.0]
---
header: 
  seq: 1819
  stamp: 
    secs: 1383345824
    nsecs: 551546866
  frame_id: ''
name: ['mockarm_controller']
position: [-0.009948376736367679]
velocity: [0.0]
effort: [0.0]
---
header: 
  seq: 1820
  stamp: 
    secs: 1383345824
    nsecs: 561541711
  frame_id: ''
name: ['mockarm_controller']
position: [-0.009948376736367679]
velocity: [0.0]
effort: [0.0]
---
header: 
  seq: 1821
  stamp: 
    secs: 1383345824
    nsecs: 571546083
  frame_id: ''
name: ['mockarm_controller']
position: [-0.009948376736367679]
velocity: [0.0]
effort: [0.0]
---
header: 
  seq: 1822
  stamp: 
    secs: 1383345824
    nsecs: 581546241
  frame_id: ''
name: ['mockarm_controller']
position: [-0.009948376736367679]
velocity: [0.0]
effort: [0.0]
---
header: 
  seq: 1823
  stamp: 
    secs: 1383345824
    nsecs: 591546468
  frame_id: ''
name: ['mockarm_controller']
position: [-0.009948376736367679]
velocity: [0.0]
effort: [0.0]
---
header: 
  seq: 1824
  stamp: 
    secs: 1383345824
    nsecs: 601544331
  frame_id: ''
name: ['mockarm_controller']
position: [-0.009948376736367679]
velocity: [0.0]
effort: [0.0]
---
header: 
  seq: 1825
  stamp: 
    secs: 1383345824
    nsecs: 611546744
  frame_id: ''
name: ['mockarm_controller']
position: [-0.009948376736367679]
velocity: [0.0]
effort: [0.0]
---
header: 
  seq: 1826
  stamp: 
    secs: 1383345824
    nsecs: 621547236
  frame_id: ''
name: ['mockarm_controller']
position: [-0.009948376736367679]
velocity: [0.0]
effort: [0.0]
---
header: 
  seq: 1827
  stamp: 
    secs: 1383345824
    nsecs: 631546395
  frame_id: ''
name: ['mockarm_controller']
position: [-0.009948376736367679]
velocity: [0.0]
effort: [0.0]
---
header: 
  seq: 1828
  stamp: 
    secs: 1383345824
    nsecs: 641543411
  frame_id: ''
name: ['mockarm_controller']
position: [-0.009948376736367679]
velocity: [0.0]
effort: [0.0]
---
header: 
  seq: 1829
  stamp: 
    secs: 1383345824
    nsecs: 651550464
  frame_id: ''
name: ['mockarm_controller']
position: [-0.009948376736367679]
velocity: [0.0]
effort: [0.0]
---
header: 
  seq: 1830
  stamp: 
    secs: 1383345824
    nsecs: 661543540
  frame_id: ''
name: ['mockarm_controller']
position: [-0.009948376736367679]
velocity: [0.0]
effort: [0.0]
---
header: 
  seq: 1831
  stamp: 
    secs: 1383345824
    nsecs: 671547410
  frame_id: ''
name: ['mockarm_controller']
position: [-0.009948376736367679]
velocity: [0.0]
effort: [0.0]
---
header: 
  seq: 1832
  stamp: 
    secs: 1383345824
    nsecs: 681544171
  frame_id: ''
name: ['mockarm_controller']
position: [-0.009948376736367679]
velocity: [0.0]
effort: [0.0]
---
header: 
  seq: 1833
  stamp: 
    secs: 1383345824
    nsecs: 691547077
  frame_id: ''
name: ['mockarm_controller']
position: [-0.009948376736367679]
velocity: [0.0]
effort: [0.0]
---
header: 
  seq: 1834
  stamp: 
    secs: 1383345824
    nsecs: 701543416
  frame_id: ''
name: ['mockarm_controller']
position: [-0.009948376736367679]
velocity: [0.0]
effort: [0.0]
---
header: 
  seq: 1835
  stamp: 
    secs: 1383345824
    nsecs: 711547038
  frame_id: ''
name: ['mockarm_controller']
position: [-0.009948376736367679]
velocity: [0.0]
effort: [0.0]
---
header: 
  seq: 1836
  stamp: 
    secs: 1383345824
    nsecs: 721543983
  frame_id: ''
name: ['mockarm_controller']
position: [-0.009948376736367679]
velocity: [0.0]
effort: [0.0]
---
header: 
  seq: 1837
  stamp: 
    secs: 1383345824
    nsecs: 731484472
  frame_id: ''
name: ['mockarm_controller']
position: [-0.009948376736367679]
velocity: [0.0]
effort: [0.0]
---
header: 
  seq: 1838
  stamp: 
    secs: 1383345824
    nsecs: 741544176
  frame_id: ''
name: ['mockarm_controller']
position: [-0.009948376736367679]
velocity: [0.0]
effort: [0.0]
---
header: 
  seq: 1839
  stamp: 
    secs: 1383345824
    nsecs: 751546910
  frame_id: ''
name: ['mockarm_controller']
position: [-0.009948376736367679]
velocity: [0.0]
effort: [0.0]
---
header: 
  seq: 1840
  stamp: 
    secs: 1383345824
    nsecs: 761544637
  frame_id: ''
name: ['mockarm_controller']
position: [-0.009948376736367679]
velocity: [0.0]
effort: [0.0]
---
header: 
  seq: 1841
  stamp: 
    secs: 1383345824
    nsecs: 771546349
  frame_id: ''
name: ['mockarm_controller']
position: [-0.009948376736367679]
velocity: [0.0]
effort: [0.0]
---
header: 
  seq: 1842
  stamp: 
    secs: 1383345824
    nsecs: 781543991
  frame_id: ''
name: ['mockarm_controller']
position: [-0.009948376736367679]
velocity: [0.0]
effort: [0.0]
---
header: 
  seq: 1843
  stamp: 
    secs: 1383345824
    nsecs: 791542709
  frame_id: ''
name: ['mockarm_controller']
position: [-0.009948376736367679]
velocity: [0.0]
effort: [0.0]
---
header: 
  seq: 1844
  stamp: 
    secs: 1383345824
    nsecs: 801543404
  frame_id: ''
name: ['mockarm_controller']
position: [-0.009948376736367679]
velocity: [0.0]
effort: [0.0]
---
header: 
  seq: 1845
  stamp: 
    secs: 1383345824
    nsecs: 811491583
  frame_id: ''
name: ['mockarm_controller']
position: [-0.009948376736367679]
velocity: [0.0]
effort: [0.0]
---
header: 
  seq: 1846
  stamp: 
    secs: 1383345824
    nsecs: 821480800
  frame_id: ''
name: ['mockarm_controller']
position: [-0.009948376736367679]
velocity: [0.0]
effort: [0.0]
---
header: 
  seq: 1847
  stamp: 
    secs: 1383345824
    nsecs: 831503942
  frame_id: ''
name: ['mockarm_controller']
position: [-0.009948376736367679]
velocity: [0.0]
effort: [0.0]
---
header: 
  seq: 1848
  stamp: 
    secs: 1383345824
    nsecs: 841552405
  frame_id: ''
name: ['mockarm_controller']
position: [-0.009948376736367679]
velocity: [0.0]
effort: [0.0]
---
header: 
  seq: 1849
  stamp: 
    secs: 1383345824
    nsecs: 855398872
  frame_id: ''
name: ['mockarm_controller']
position: [-0.009948376736367679]
velocity: [0.0]
effort: [0.0]
---
header: 
  seq: 1850
  stamp: 
    secs: 1383345824
    nsecs: 861472970
  frame_id: ''
name: ['mockarm_controller']
position: [-0.009948376736367679]
velocity: [0.0]
effort: [0.0]
---
header: 
  seq: 1851
  stamp: 
    secs: 1383345824
    nsecs: 871482377
  frame_id: ''
name: ['mockarm_controller']
position: [-0.009948376736367679]
velocity: [0.0]
effort: [0.0]
---
header: 
  seq: 1852
  stamp: 
    secs: 1383345824
    nsecs: 881474439
  frame_id: ''
name: ['mockarm_controller']
position: [-0.005166174585903216]
velocity: [0.47287670824329714]
effort: [0.0]
---
header: 
  seq: 1853
  stamp: 
    secs: 1383345824
    nsecs: 891479787
  frame_id: ''
name: ['mockarm_controller']
position: [0.002443460952792061]
velocity: [0.7481698494440348]
effort: [0.0]
---
header: 
  seq: 1854
  stamp: 
    secs: 1383345824
    nsecs: 901541094
  frame_id: ''
name: ['mockarm_controller']
position: [0.00577703982410123]
velocity: [0.3280113028937488]
effort: [0.0]
---
header: 
  seq: 1855
  stamp: 
    secs: 1383345824
    nsecs: 911476837
  frame_id: ''
name: ['mockarm_controller']
position: [0.011519173063162575]
velocity: [0.5692043258387535]
effort: [0.0]
---
header: 
  seq: 1856
  stamp: 
    secs: 1383345824
    nsecs: 921477496
  frame_id: ''
name: ['mockarm_controller']
position: [0.01626646862858715]
velocity: [0.4659693330805434]
effort: [0.0]
---
header: 
  seq: 1857
  stamp: 
    secs: 1383345824
    nsecs: 931482434
  frame_id: ''
name: ['mockarm_controller']
position: [0.021101030656611442]
velocity: [0.465622847734209]
effort: [0.0]
---
header: 
  seq: 1858
  stamp: 
    secs: 1383345824
    nsecs: 941475389
  frame_id: ''
name: ['mockarm_controller']
position: [0.026197392072434884]
velocity: [0.5055412573974251]
effort: [0.0]
---
header: 
  seq: 1859
  stamp: 
    secs: 1383345824
    nsecs: 951503976
  frame_id: ''
name: ['mockarm_controller']
position: [0.031049407392979123]
velocity: [0.48700344480018454]
effort: [0.0]
---
header: 
  seq: 1860
  stamp: 
    secs: 1383345824
    nsecs: 961474705
  frame_id: ''
name: ['mockarm_controller']
position: [0.0359188760060433]
velocity: [0.4790897887705803]
effort: [0.0]
---
header: 
  seq: 1861
  stamp: 
    secs: 1383345824
    nsecs: 971547561
  frame_id: ''
name: ['mockarm_controller']
position: [0.040875611081707196]
velocity: [0.49023193310888097]
effort: [0.0]
---
header: 
  seq: 1862
  stamp: 
    secs: 1383345824
    nsecs: 981544950
  frame_id: ''
name: ['mockarm_controller']
position: [0.0456752665246916]
velocity: [0.4655339905901461]
effort: [0.0]
---
header: 
  seq: 1863
  stamp: 
    secs: 1383345824
    nsecs: 991547162
  frame_id: ''
name: ['mockarm_controller']
position: [0.0506320016003555]
velocity: [0.5068754551246443]
effort: [0.0]
---
header: 
  seq: 1864
  stamp: 
    secs: 1383345825
    nsecs: 1543810
  frame_id: ''
name: ['mockarm_controller']
position: [0.05551892350593962]
velocity: [0.4845252732088166]
effort: [0.0]
---
header: 
  seq: 1865
  stamp: 
    secs: 1383345825
    nsecs: 11547030
  frame_id: ''
name: ['mockarm_controller']
position: [0.06052801845916335]
velocity: [0.4980704935093694]
effort: [0.0]
---
header: 
  seq: 1866
  stamp: 
    secs: 1383345825
    nsecs: 21542476
  frame_id: ''
name: ['mockarm_controller']
position: [0.0654673002423073]
velocity: [0.4866766955506903]
effort: [0.0]
---
header: 
  seq: 1867
  stamp: 
    secs: 1383345825
    nsecs: 31546900
  frame_id: ''
name: ['mockarm_controller']
position: [0.07044148861049114]
velocity: [0.49519047965991386]
effort: [0.0]
---
header: 
  seq: 1868
  stamp: 
    secs: 1383345825
    nsecs: 41559602
  frame_id: ''
name: ['mockarm_controller']
position: [0.0753807703936351]
velocity: [0.49083591206836497]
effort: [0.0]
---
header: 
  seq: 1869
  stamp: 
    secs: 1383345825
    nsecs: 51547050
  frame_id: ''
name: ['mockarm_controller']
position: [0.08035495876181893]
velocity: [0.4907447087789893]
effort: [0.0]
---
header: 
  seq: 1870
  stamp: 
    secs: 1383345825
    nsecs: 61560015
  frame_id: ''
name: ['mockarm_controller']
position: [0.08522442737488312]
velocity: [0.48481368110953654]
effort: [0.0]
---
header: 
  seq: 1871
  stamp: 
    secs: 1383345825
    nsecs: 71546590
  frame_id: ''
name: ['mockarm_controller']
position: [0.09026842891314672]
velocity: [0.5038459233107189]
effort: [0.0]
---
header: 
  seq: 1872
  stamp: 
    secs: 1383345825
    nsecs: 81542333
  frame_id: ''
name: ['mockarm_controller']
position: [0.09532988374393028]
velocity: [0.49626971573522505]
effort: [0.0]
---
header: 
  seq: 1873
  stamp: 
    secs: 1383345825
    nsecs: 91547080
  frame_id: ''
name: ['mockarm_controller']
position: [0.10026916552707422]
velocity: [0.4757085411869346]
effort: [0.0]
---
header: 
  seq: 1874
  stamp: 
    secs: 1383345825
    nsecs: 101542465
  frame_id: ''
name: ['mockarm_controller']
position: [0.10531316706533785]
velocity: [0.5065275696187609]
effort: [0.0]
---
header: 
  seq: 1875
  stamp: 
    secs: 1383345825
    nsecs: 111546298
  frame_id: ''
name: ['mockarm_controller']
position: [0.11028735543352168]
velocity: [0.4922015009087507]
effort: [0.0]
---
header: 
  seq: 1876
  stamp: 
    secs: 1383345825
    nsecs: 121543299
  frame_id: ''
name: ['mockarm_controller']
position: [0.11527899709422547]
velocity: [0.49178735573436344]
effort: [0.0]
---
header: 
  seq: 1877
  stamp: 
    secs: 1383345825
    nsecs: 131547178
  frame_id: ''
name: ['mockarm_controller']
position: [0.12032299863248908]
velocity: [0.48607512173688033]
effort: [0.0]
---
header: 
  seq: 1878
  stamp: 
    secs: 1383345825
    nsecs: 141543819
  frame_id: ''
name: ['mockarm_controller']
position: [0.12534954687823274]
velocity: [0.5076295946014611]
effort: [0.0]
---
header: 
  seq: 1879
  stamp: 
    secs: 1383345825
    nsecs: 151546998
  frame_id: ''
name: ['mockarm_controller']
position: [0.13030628195389665]
velocity: [0.48757968479873204]
effort: [0.0]
---
header: 
  seq: 1880
  stamp: 
    secs: 1383345825
    nsecs: 161517655
  frame_id: ''
name: ['mockarm_controller']
position: [0.1352979236146004]
velocity: [0.49466273518023596]
effort: [0.0]
---
header: 
  seq: 1881
  stamp: 
    secs: 1383345825
    nsecs: 171547049
  frame_id: ''
name: ['mockarm_controller']
position: [0.14034192515286403]
velocity: [0.49733795486724713]
effort: [0.0]
---
header: 
  seq: 1882
  stamp: 
    secs: 1383345825
    nsecs: 181542530
  frame_id: ''
name: ['mockarm_controller']
position: [0.14529866022852794]
velocity: [0.48979595609327176]
effort: [0.0]
---
header: 
  seq: 1883
  stamp: 
    secs: 1383345825
    nsecs: 191546897
  frame_id: ''
name: ['mockarm_controller']
position: [0.15027284859671178]
velocity: [0.487761165736795]
effort: [0.0]
---
header: 
  seq: 1884
  stamp: 
    secs: 1383345825
    nsecs: 201545218
  frame_id: ''
name: ['mockarm_controller']
position: [0.15542156989009503]
velocity: [0.4965494544684403]
effort: [0.0]
---
header: 
  seq: 1885
  stamp: 
    secs: 1383345825
    nsecs: 211539697
  frame_id: ''
name: ['mockarm_controller']
position: [0.16025613191811933]
velocity: [0.4878960569204049]
effort: [0.0]
---
header: 
  seq: 1886
  stamp: 
    secs: 1383345825
    nsecs: 221544650
  frame_id: ''
name: ['mockarm_controller']
position: [0.165282680163863]
velocity: [0.49871497626189776]
effort: [0.0]
---
header: 
  seq: 1887
  stamp: 
    secs: 1383345825
    nsecs: 231541801
  frame_id: ''
name: ['mockarm_controller']
position: [0.17025686853204686]
velocity: [0.4883837376714642]
effort: [0.0]
---
header: 
  seq: 1888
  stamp: 
    secs: 1383345825
    nsecs: 241478769
  frame_id: ''
name: ['mockarm_controller']
position: [0.1753183233628304]
velocity: [0.4992557536776037]
effort: [0.0]
---
header: 
  seq: 1889
  stamp: 
    secs: 1383345825
    nsecs: 251546870
  frame_id: ''
name: ['mockarm_controller']
position: [0.18018779197589457]
velocity: [0.4715278990088284]
effort: [0.0]
---
header: 
  seq: 1890
  stamp: 
    secs: 1383345825
    nsecs: 261542969
  frame_id: ''
name: ['mockarm_controller']
position: [0.1853190599767579]
velocity: [0.5182575498296467]
effort: [0.0]
---
header: 
  seq: 1891
  stamp: 
    secs: 1383345825
    nsecs: 271549346
  frame_id: ''
name: ['mockarm_controller']
position: [0.1903107016374617]
velocity: [0.4901936227736216]
effort: [0.0]
---
header: 
  seq: 1892
  stamp: 
    secs: 1383345825
    nsecs: 281544424
  frame_id: ''
name: ['mockarm_controller']
position: [0.19533724988320536]
velocity: [0.495959373038349]
effort: [0.0]
---
header: 
  seq: 1893
  stamp: 
    secs: 1383345825
    nsecs: 291546956
  frame_id: ''
name: ['mockarm_controller']
position: [0.20034634483642907]
velocity: [0.49355551810264203]
effort: [0.0]
---
header: 
  seq: 1894
  stamp: 
    secs: 1383345825
    nsecs: 301545780
  frame_id: ''
name: ['mockarm_controller']
position: [0.20532053320461294]
velocity: [0.49069629754206007]
effort: [0.0]
---
header: 
  seq: 1895
  stamp: 
    secs: 1383345825
    nsecs: 311547540
  frame_id: ''
name: ['mockarm_controller']
position: [0.2103121748653167]
velocity: [0.49500611470683864]
effort: [0.0]
---
header: 
  seq: 1896
  stamp: 
    secs: 1383345825
    nsecs: 321543784
  frame_id: ''
name: ['mockarm_controller']
position: [0.21523400335594073]
velocity: [0.487889422147505]
effort: [0.0]
---
header: 
  seq: 1897
  stamp: 
    secs: 1383345825
    nsecs: 331546666
  frame_id: ''
name: ['mockarm_controller']
position: [0.22029545818672427]
velocity: [0.49578360571883107]
effort: [0.0]
---
header: 
  seq: 1898
  stamp: 
    secs: 1383345825
    nsecs: 341542238
  frame_id: ''
name: ['mockarm_controller']
position: [0.2253394597249879]
velocity: [0.4968970089906039]
effort: [0.0]
---
header: 
  seq: 1899
  stamp: 
    secs: 1383345825
    nsecs: 351546544
  frame_id: ''
name: ['mockarm_controller']
position: [0.2302612882156119]
velocity: [0.4745760766198055]
effort: [0.0]
---
header: 
  seq: 1900
  stamp: 
    secs: 1383345825
    nsecs: 361475181
  frame_id: ''
name: ['mockarm_controller']
position: [0.2352703831688356]
velocity: [0.49384747640971255]
effort: [0.0]
---
header: 
  seq: 1901
  stamp: 
    secs: 1383345825
    nsecs: 371547095
  frame_id: ''
name: ['mockarm_controller']
position: [0.24022711824449952]
velocity: [0.4999228518067483]
effort: [0.0]
---
header: 
  seq: 1902
  stamp: 
    secs: 1383345825
    nsecs: 381543234
  frame_id: ''
name: ['mockarm_controller']
position: [0.24527111978276311]
velocity: [0.49925779850179086]
effort: [0.0]
---
header: 
  seq: 1903
  stamp: 
    secs: 1383345825
    nsecs: 391540234
  frame_id: ''
name: ['mockarm_controller']
position: [0.2503674811985866]
velocity: [0.5010186212960559]
effort: [0.0]
---
header: 
  seq: 1904
  stamp: 
    secs: 1383345825
    nsecs: 401544740
  frame_id: ''
name: ['mockarm_controller']
position: [0.25532421627425045]
velocity: [0.4911548826460418]
effort: [0.0]
---
header: 
  seq: 1905
  stamp: 
    secs: 1383345825
    nsecs: 411546913
  frame_id: ''
name: ['mockarm_controller']
position: [0.26031585793495426]
velocity: [0.49053082357545363]
effort: [0.0]
---
header: 
  seq: 1906
  stamp: 
    secs: 1383345825
    nsecs: 421539347
  frame_id: ''
name: ['mockarm_controller']
position: [0.26534240618069793]
velocity: [0.4946903105741233]
effort: [0.0]
---
header: 
  seq: 1907
  stamp: 
    secs: 1383345825
    nsecs: 431547100
  frame_id: ''
name: ['mockarm_controller']
position: [0.27031659454888174]
velocity: [0.48953728650563993]
effort: [0.0]
---
header: 
  seq: 1908
  stamp: 
    secs: 1383345825
    nsecs: 441560982
  frame_id: ''
name: ['mockarm_controller']
position: [0.27523842303950574]
velocity: [0.47784742627417504]
effort: [0.0]
---
header: 
  seq: 1909
  stamp: 
    secs: 1383345825
    nsecs: 451541619
  frame_id: ''
name: ['mockarm_controller']
position: [0.2803522377478492]
velocity: [0.49978642575678595]
effort: [0.0]
---
header: 
  seq: 1910
  stamp: 
    secs: 1383345825
    nsecs: 461545134
  frame_id: ''
name: ['mockarm_controller']
position: [0.28534387940855294]
velocity: [0.5073837833608213]
effort: [0.0]
---
header: 
  seq: 1911
  stamp: 
    secs: 1383345825
    nsecs: 471548161
  frame_id: ''
name: ['mockarm_controller']
position: [0.29031806777673674]
velocity: [0.4902610258411007]
effort: [0.0]
---
header: 
  seq: 1912
  stamp: 
    secs: 1383345825
    nsecs: 481543873
  frame_id: ''
name: ['mockarm_controller']
position: [0.2952922561449206]
velocity: [0.4880961994096617]
effort: [0.0]
---
header: 
  seq: 1913
  stamp: 
    secs: 1383345825
    nsecs: 491546508
  frame_id: ''
name: ['mockarm_controller']
position: [0.3003362576831842]
velocity: [0.4885704705795835]
effort: [0.0]
---
header: 
  seq: 1914
  stamp: 
    secs: 1383345825
    nsecs: 501543034
  frame_id: ''
name: ['mockarm_controller']
position: [0.3052057262962484]
velocity: [0.4918655164711312]
effort: [0.0]
---
header: 
  seq: 1915
  stamp: 
    secs: 1383345825
    nsecs: 511540266
  frame_id: ''
name: ['mockarm_controller']
position: [0.31026718112703194]
velocity: [0.49695187342008035]
effort: [0.0]
---
header: 
  seq: 1916
  stamp: 
    secs: 1383345825
    nsecs: 521544068
  frame_id: ''
name: ['mockarm_controller']
position: [0.3152937293727756]
velocity: [0.4977273240661122]
effort: [0.0]
---
header: 
  seq: 1917
  stamp: 
    secs: 1383345825
    nsecs: 531547999
  frame_id: ''
name: ['mockarm_controller']
position: [0.3203028243259993]
velocity: [0.4945300575795947]
effort: [0.0]
---
header: 
  seq: 1918
  stamp: 
    secs: 1383345825
    nsecs: 541543381
  frame_id: ''
name: ['mockarm_controller']
position: [0.32529446598670314]
velocity: [0.49178735573436616]
effort: [0.0]
---
header: 
  seq: 1919
  stamp: 
    secs: 1383345825
    nsecs: 551547781
  frame_id: ''
name: ['mockarm_controller']
position: [0.33021629447732714]
velocity: [0.49331747926470915]
effort: [0.0]
---
header: 
  seq: 1920
  stamp: 
    secs: 1383345825
    nsecs: 561559491
  frame_id: ''
name: ['mockarm_controller']
position: [0.3352428427230708]
velocity: [0.49255739791706693]
effort: [0.0]
---
header: 
  seq: 1921
  stamp: 
    secs: 1383345825
    nsecs: 571476385
  frame_id: ''
name: ['mockarm_controller']
position: [0.3402170310912547]
velocity: [0.4912778635243321]
effort: [0.0]
---
header: 
  seq: 1922
  stamp: 
    secs: 1383345825
    nsecs: 581543051
  frame_id: ''
name: ['mockarm_controller']
position: [0.3453133925070781]
velocity: [0.5072520569148428]
effort: [0.0]
---
header: 
  seq: 1923
  stamp: 
    secs: 1383345825
    nsecs: 591540057
  frame_id: ''
name: ['mockarm_controller']
position: [0.35025267429022205]
velocity: [0.483816415235964]
effort: [0.0]
---
header: 
  seq: 1924
  stamp: 
    secs: 1383345825
    nsecs: 601539138
  frame_id: ''
name: ['mockarm_controller']
position: [0.35522686265840586]
velocity: [0.4903093512256094]
effort: [0.0]
---
header: 
  seq: 1925
  stamp: 
    secs: 1383345825
    nsecs: 611543224
  frame_id: ''
name: ['mockarm_controller']
position: [0.3602708641966695]
velocity: [0.49768145419473314]
effort: [0.0]
---
header: 
  seq: 1926
  stamp: 
    secs: 1383345825
    nsecs: 621480662
  frame_id: ''
name: ['mockarm_controller']
position: [0.3602708641966695]
velocity: [0.49768145419473314]
effort: [0.0]
---
header: 
  seq: 1927
  stamp: 
    secs: 1383345825
    nsecs: 631474360
  frame_id: ''
name: ['mockarm_controller']
position: [0.3652275992723334]
velocity: [0.48315967206003607]
effort: [0.0]
---
header: 
  seq: 1928
  stamp: 
    secs: 1383345825
    nsecs: 641482897
  frame_id: ''
name: ['mockarm_controller']
position: [0.37020178764051725]
velocity: [0.5015313942512465]
effort: [0.0]
---
header: 
  seq: 1929
  stamp: 
    secs: 1383345825
    nsecs: 651491487
  frame_id: ''
name: ['mockarm_controller']
position: [0.3752981490563407]
velocity: [0.5029965866387115]
effort: [0.0]
---
header: 
  seq: 1930
  stamp: 
    secs: 1383345825
    nsecs: 661480391
  frame_id: ''
name: ['mockarm_controller']
position: [0.3802548841320046]
velocity: [0.4895057353015909]
effort: [0.0]
---
header: 
  seq: 1931
  stamp: 
    secs: 1383345825
    nsecs: 671482240
  frame_id: ''
name: ['mockarm_controller']
position: [0.3852639790852283]
velocity: [0.4930696872943906]
effort: [0.0]
---
header: 
  seq: 1932
  stamp: 
    secs: 1383345825
    nsecs: 681549463
  frame_id: ''
name: ['mockarm_controller']
position: [0.3902381674534121]
velocity: [0.48891177198582736]
effort: [0.0]
---
header: 
  seq: 1933
  stamp: 
    secs: 1383345825
    nsecs: 691580661
  frame_id: ''
name: ['mockarm_controller']
position: [0.39528216899167573]
velocity: [0.4968970089906039]
effort: [0.0]
---
header: 
  seq: 1934
  stamp: 
    secs: 1383345825
    nsecs: 701543156
  frame_id: ''
name: ['mockarm_controller']
position: [0.40023890406733964]
velocity: [0.48844452854394066]
effort: [0.0]
---
header: 
  seq: 1935
  stamp: 
    secs: 1383345825
    nsecs: 711548354
  frame_id: ''
name: ['mockarm_controller']
position: [0.4052654523130833]
velocity: [0.4984182692854405]
effort: [0.0]
---
header: 
  seq: 1936
  stamp: 
    secs: 1383345825
    nsecs: 721548026
  frame_id: ''
name: ['mockarm_controller']
position: [0.41030945385134693]
velocity: [0.4933008839377624]
effort: [0.0]
---
header: 
  seq: 1937
  stamp: 
    secs: 1383345825
    nsecs: 731538678
  frame_id: ''
name: ['mockarm_controller']
position: [0.4153010955120507]
velocity: [0.4950552078452604]
effort: [0.0]
---
header: 
  seq: 1938
  stamp: 
    secs: 1383345825
    nsecs: 741492290
  frame_id: ''
name: ['mockarm_controller']
position: [0.4202578305877146]
velocity: [0.4772056489519505]
effort: [0.0]
---
header: 
  seq: 1939
  stamp: 
    secs: 1383345825
    nsecs: 751476443
  frame_id: ''
name: ['mockarm_controller']
position: [0.4251796590783386]
velocity: [0.4990194150485656]
effort: [0.0]
---
header: 
  seq: 1940
  stamp: 
    secs: 1383345825
    nsecs: 761540779
  frame_id: ''
name: ['mockarm_controller']
position: [0.43020620732408227]
velocity: [0.4984182692854405]
effort: [0.0]
---
header: 
  seq: 1941
  stamp: 
    secs: 1383345825
    nsecs: 771537174
  frame_id: ''
name: ['mockarm_controller']
position: [0.43526766215486584]
velocity: [0.5019790569060373]
effort: [0.0]
---
header: 
  seq: 1942
  stamp: 
    secs: 1383345825
    nsecs: 781544827
  frame_id: ''
name: ['mockarm_controller']
position: [0.44024185052304965]
velocity: [0.49504263218389805]
effort: [0.0]
---
header: 
  seq: 1943
  stamp: 
    secs: 1383345825
    nsecs: 791539137
  frame_id: ''
name: ['mockarm_controller']
position: [0.4452509454762734]
velocity: [0.49060675349890004]
effort: [0.0]
---
header: 
  seq: 1944
  stamp: 
    secs: 1383345825
    nsecs: 801539961
  frame_id: ''
name: ['mockarm_controller']
position: [0.4502076805519373]
velocity: [0.49325655046908695]
effort: [0.0]
---
header: 
  seq: 1945
  stamp: 
    secs: 1383345825
    nsecs: 811477470
  frame_id: ''
name: ['mockarm_controller']
position: [0.4551644156276012]
velocity: [0.4913983419910687]
effort: [0.0]
---
header: 
  seq: 1946
  stamp: 
    secs: 1383345825
    nsecs: 821546025
  frame_id: ''
name: ['mockarm_controller']
position: [0.4601735105808249]
velocity: [0.5016619883048287]
effort: [0.0]
---
header: 
  seq: 1947
  stamp: 
    secs: 1383345825
    nsecs: 831547083
  frame_id: ''
name: ['mockarm_controller']
position: [0.46509533907144895]
velocity: [0.48620255760387815]
effort: [0.0]
---
header: 
  seq: 1948
  stamp: 
    secs: 1383345825
    nsecs: 841546464
  frame_id: ''
name: ['mockarm_controller']
position: [0.4701742471947524]
velocity: [0.5007797400220343]
effort: [0.0]
---
header: 
  seq: 1949
  stamp: 
    secs: 1383345825
    nsecs: 851546535
  frame_id: ''
name: ['mockarm_controller']
position: [0.4752007954404961]
velocity: [0.4877776075442666]
effort: [0.0]
---
header: 
  seq: 1950
  stamp: 
    secs: 1383345825
    nsecs: 861544923
  frame_id: ''
name: ['mockarm_controller']
position: [0.48019243710119985]
velocity: [0.5032404134190706]
effort: [0.0]
---
header: 
  seq: 1951
  stamp: 
    secs: 1383345825
    nsecs: 871547570
  frame_id: ''
name: ['mockarm_controller']
position: [0.4800702640535603]
velocity: [-0.011867221723124056]
effort: [0.0]
---
header: 
  seq: 1952
  stamp: 
    secs: 1383345825
    nsecs: 881544418
  frame_id: ''
name: ['mockarm_controller']
position: [0.4782202150464463]
velocity: [-0.18524572014759152]
effort: [0.0]
---
header: 
  seq: 1953
  stamp: 
    secs: 1383345825
    nsecs: 891547100
  frame_id: ''
name: ['mockarm_controller']
position: [0.4791975994275631]
velocity: [0.09651272648531949]
effort: [0.0]
---
header: 
  seq: 1954
  stamp: 
    secs: 1383345825
    nsecs: 901542111
  frame_id: ''
name: ['mockarm_controller']
position: [0.47888344016220413]
velocity: [-0.030973012457753437]
effort: [0.0]
---
header: 
  seq: 1955
  stamp: 
    secs: 1383345825
    nsecs: 911547766
  frame_id: ''
name: ['mockarm_controller']
position: [0.4789881599173238]
velocity: [0.010352916966847689]
effort: [0.0]
---
header: 
  seq: 1956
  stamp: 
    secs: 1383345825
    nsecs: 921545113
  frame_id: ''
name: ['mockarm_controller']
position: [0.4790230665023637]
velocity: [0.003454045620414271]
effort: [0.0]
---
header: 
  seq: 1957
  stamp: 
    secs: 1383345825
    nsecs: 931547118
  frame_id: ''
name: ['mockarm_controller']
position: [0.47909287967244346]
velocity: [0.006694138467710974]
effort: [0.0]
---
header: 
  seq: 1958
  stamp: 
    secs: 1383345825
    nsecs: 941545136
  frame_id: ''
name: ['mockarm_controller']
position: [0.47914523955000327]
velocity: [0.005285139553831072]
effort: [0.0]
---
header: 
  seq: 1959
  stamp: 
    secs: 1383345825
    nsecs: 951546887
  frame_id: ''
name: ['mockarm_controller']
position: [0.4792150527200831]
velocity: [0.006910826576896976]
effort: [0.0]
---
header: 
  seq: 1960
  stamp: 
    secs: 1383345825
    nsecs: 961544589
  frame_id: ''
name: ['mockarm_controller']
position: [0.47928486589016284]
velocity: [0.006910826576891481]
effort: [0.0]
---
header: 
  seq: 1961
  stamp: 
    secs: 1383345825
    nsecs: 971547558
  frame_id: ''
name: ['mockarm_controller']
position: [0.4793546790602426]
velocity: [0.0068930855134041995]
effort: [0.0]
---
header: 
  seq: 1962
  stamp: 
    secs: 1383345825
    nsecs: 981545235
  frame_id: ''
name: ['mockarm_controller']
position: [0.47942449223032235]
velocity: [0.00688628625762061]
effort: [0.0]
---
header: 
  seq: 1963
  stamp: 
    secs: 1383345825
    nsecs: 991546088
  frame_id: ''
name: ['mockarm_controller']
position: [0.4794768521078822]
velocity: [0.005023493961418012]
effort: [0.0]
---
header: 
  seq: 1964
  stamp: 
    secs: 1383345826
    nsecs: 1544648
  frame_id: ''
name: ['mockarm_controller']
position: [0.47954666527796197]
velocity: [0.007051123126932404]
effort: [0.0]
---
header: 
  seq: 1965
  stamp: 
    secs: 1383345826
    nsecs: 11545776
  frame_id: ''
name: ['mockarm_controller']
position: [0.47959902515552183]
velocity: [0.005171345931838018]
effort: [0.0]
---
header: 
  seq: 1966
  stamp: 
    secs: 1383345826
    nsecs: 21547829
  frame_id: ''
name: ['mockarm_controller']
position: [0.4796339317405617]
velocity: [0.0034462024918403707]
effort: [0.0]
---
header: 
  seq: 1967
  stamp: 
    secs: 1383345826
    nsecs: 31484530
  frame_id: ''
name: ['mockarm_controller']
position: [0.4796688383256016]
velocity: [0.003449949104556891]
effort: [0.0]
---
header: 
  seq: 1968
  stamp: 
    secs: 1383345826
    nsecs: 41545092
  frame_id: ''
name: ['mockarm_controller']
position: [0.4797211982031614]
velocity: [0.005052579133436691]
effort: [0.0]
---
header: 
  seq: 1969
  stamp: 
    secs: 1383345826
    nsecs: 51541494
  frame_id: ''
name: ['mockarm_controller']
position: [0.4797561047882013]
velocity: [0.0035018644702956084]
effort: [0.0]
---
header: 
  seq: 1970
  stamp: 
    secs: 1383345826
    nsecs: 61545362
  frame_id: ''
name: ['mockarm_controller']
position: [0.47977355808072125]
velocity: [0.001723441544381684]
effort: [0.0]
---
header: 
  seq: 1971
  stamp: 
    secs: 1383345826
    nsecs: 71546114
  frame_id: ''
name: ['mockarm_controller']
position: [0.4798084646657611]
velocity: [0.003455755374700635]
effort: [0.0]
---
header: 
  seq: 1972
  stamp: 
    secs: 1383345826
    nsecs: 81543196
  frame_id: ''
name: ['mockarm_controller']
position: [0.47982591795828106]
velocity: [0.001714637245304383]
effort: [0.0]
---
header: 
  seq: 1973
  stamp: 
    secs: 1383345826
    nsecs: 91545881
  frame_id: ''
name: ['mockarm_controller']
position: [0.47986082454332096]
velocity: [0.003452337557106777]
effort: [0.0]
---
header: 
  seq: 1974
  stamp: 
    secs: 1383345826
    nsecs: 101543491
  frame_id: ''
name: ['mockarm_controller']
position: [0.4798782778358409]
velocity: [0.0016727326547779676]
effort: [0.0]
---
header: 
  seq: 1975
  stamp: 
    secs: 1383345826
    nsecs: 111545630
  frame_id: ''
name: ['mockarm_controller']
position: [0.47991318442088077]
velocity: [0.0035384272721592615]
effort: [0.0]
---
header: 
  seq: 1976
  stamp: 
    secs: 1383345826
    nsecs: 121542857
  frame_id: ''
name: ['mockarm_controller']
position: [0.4799306377134007]
velocity: [0.001714637245304383]
effort: [0.0]
---
header: 
  seq: 1977
  stamp: 
    secs: 1383345826
    nsecs: 131545932
  frame_id: ''
name: ['mockarm_controller']
position: [0.4799306377134007]
velocity: [0.0]
effort: [0.0]
---
header: 
  seq: 1978
  stamp: 
    secs: 1383345826
    nsecs: 141544948
  frame_id: ''
name: ['mockarm_controller']
position: [0.4799655442984406]
velocity: [0.0034502901097070897]
effort: [0.0]
---
header: 
  seq: 1979
  stamp: 
    secs: 1383345826
    nsecs: 151536271
  frame_id: ''
name: ['mockarm_controller']
position: [0.4799655442984406]
velocity: [0.0]
effort: [0.0]
---
header: 
  seq: 1980
  stamp: 
    secs: 1383345826
    nsecs: 161544274
  frame_id: ''
name: ['mockarm_controller']
position: [0.4799655442984406]
velocity: [0.0]
effort: [0.0]
---
header: 
  seq: 1981
  stamp: 
    secs: 1383345826
    nsecs: 171547045
  frame_id: ''
name: ['mockarm_controller']
position: [0.4799829975909606]
velocity: [0.0017117783954446167]
effort: [0.0]
---
header: 
  seq: 1982
  stamp: 
    secs: 1383345826
    nsecs: 181543895
  frame_id: ''
name: ['mockarm_controller']
position: [0.4800004508834805]
velocity: [0.0016903915273508768]
effort: [0.0]
---
header: 
  seq: 1983
  stamp: 
    secs: 1383345826
    nsecs: 191547955
  frame_id: ''
name: ['mockarm_controller']
position: [0.4800004508834805]
velocity: [0.0]
effort: [0.0]
---
header: 
  seq: 1984
  stamp: 
    secs: 1383345826
    nsecs: 201544815
  frame_id: ''
name: ['mockarm_controller']
position: [0.4800004508834805]
velocity: [0.0]
effort: [0.0]
---
header: 
  seq: 1985
  stamp: 
    secs: 1383345826
    nsecs: 211548351
  frame_id: ''
name: ['mockarm_controller']
position: [0.4800004508834805]
velocity: [0.0]
effort: [0.0]
---
header: 
  seq: 1986
  stamp: 
    secs: 1383345826
    nsecs: 221542764
  frame_id: ''
name: ['mockarm_controller']
position: [0.48001790417600043]
velocity: [0.0017222510874238517]
effort: [0.0]
---
header: 
  seq: 1987
  stamp: 
    secs: 1383345826
    nsecs: 231543326
  frame_id: ''
name: ['mockarm_controller']
position: [0.48001790417600043]
velocity: [0.0]
effort: [0.0]
---
header: 
  seq: 1988
  stamp: 
    secs: 1383345826
    nsecs: 241542803
  frame_id: ''
name: ['mockarm_controller']
position: [0.48001790417600043]
velocity: [0.0]
effort: [0.0]
---
header: 
  seq: 1989
  stamp: 
    secs: 1383345826
    nsecs: 251548407
  frame_id: ''
name: ['mockarm_controller']
position: [0.48001790417600043]
velocity: [0.0]
effort: [0.0]
---
header: 
  seq: 1990
  stamp: 
    secs: 1383345826
    nsecs: 261544436
  frame_id: ''
name: ['mockarm_controller']
position: [0.48001790417600043]
velocity: [0.0]
effort: [0.0]
---
header: 
  seq: 1991
  stamp: 
    secs: 1383345826
    nsecs: 271546456
  frame_id: ''
name: ['mockarm_controller']
position: [0.48001790417600043]
velocity: [0.0]
effort: [0.0]
---
header: 
  seq: 1992
  stamp: 
    secs: 1383345826
    nsecs: 281542738
  frame_id: ''
name: ['mockarm_controller']
position: [0.48001790417600043]
velocity: [0.0]
effort: [0.0]
---
header: 
  seq: 1993
  stamp: 
    secs: 1383345826
    nsecs: 291474940
  frame_id: ''
name: ['mockarm_controller']
position: [0.48001790417600043]
velocity: [0.0]
effort: [0.0]
---
header: 
  seq: 1994
  stamp: 
    secs: 1383345826
    nsecs: 301482404
  frame_id: ''
name: ['mockarm_controller']
position: [0.48001790417600043]
velocity: [0.0]
effort: [0.0]
---
header: 
  seq: 1995
  stamp: 
    secs: 1383345826
    nsecs: 311547535
  frame_id: ''
name: ['mockarm_controller']
position: [0.4800353574685204]
velocity: [0.0017217413948854012]
effort: [0.0]
---
header: 
  seq: 1996
  stamp: 
    secs: 1383345826
    nsecs: 321542541
  frame_id: ''
name: ['mockarm_controller']
position: [0.4800353574685204]
velocity: [0.0]
effort: [0.0]
---
header: 
  seq: 1997
  stamp: 
    secs: 1383345826
    nsecs: 331547359
  frame_id: ''
name: ['mockarm_controller']
position: [0.4800353574685204]
velocity: [0.0]
effort: [0.0]
---
header: 
  seq: 1998
  stamp: 
    secs: 1383345826
    nsecs: 341542886
  frame_id: ''
name: ['mockarm_controller']
position: [0.4800353574685204]
velocity: [0.0]
effort: [0.0]
---
header: 
  seq: 1999
  stamp: 
    secs: 1383345826
    nsecs: 351489802
  frame_id: ''
name: ['mockarm_controller']
position: [0.4800353574685204]
velocity: [0.0]
effort: [0.0]
---
header: 
  seq: 2000
  stamp: 
    secs: 1383345826
    nsecs: 361543701
  frame_id: ''
name: ['mockarm_controller']
position: [0.4800353574685204]
velocity: [0.0]
effort: [0.0]
---
header: 
  seq: 2001
  stamp: 
    secs: 1383345826
    nsecs: 371483579
  frame_id: ''
name: ['mockarm_controller']
position: [0.4800353574685204]
velocity: [0.0]
effort: [0.0]
---
header: 
  seq: 2002
  stamp: 
    secs: 1383345826
    nsecs: 381481480
  frame_id: ''
name: ['mockarm_controller']
position: [0.4800353574685204]
velocity: [0.0]
effort: [0.0]
---
header: 
  seq: 2003
  stamp: 
    secs: 1383345826
    nsecs: 391494327
  frame_id: ''
name: ['mockarm_controller']
position: [0.4800353574685204]
velocity: [0.0]
effort: [0.0]
---
header: 
  seq: 2004
  stamp: 
    secs: 1383345826
    nsecs: 401475613
  frame_id: ''
name: ['mockarm_controller']
position: [0.4800353574685204]
velocity: [0.0]
effort: [0.0]
---
header: 
  seq: 2005
  stamp: 
    secs: 1383345826
    nsecs: 411480460
  frame_id: ''
name: ['mockarm_controller']
position: [0.4800353574685204]
velocity: [0.0]
effort: [0.0]
---
header: 
  seq: 2006
  stamp: 
    secs: 1383345826
    nsecs: 421474666
  frame_id: ''
name: ['mockarm_controller']
position: [0.4800353574685204]
velocity: [0.0]
effort: [0.0]
---
header: 
  seq: 2007
  stamp: 
    secs: 1383345826
    nsecs: 431472784
  frame_id: ''
name: ['mockarm_controller']
position: [0.4800353574685204]
velocity: [0.0]
effort: [0.0]
---
header: 
  seq: 2008
  stamp: 
    secs: 1383345826
    nsecs: 441474898
  frame_id: ''
name: ['mockarm_controller']
position: [0.4800353574685204]
velocity: [0.0]
effort: [0.0]
---
header: 
  seq: 2009
  stamp: 
    secs: 1383345826
    nsecs: 451475859
  frame_id: ''
name: ['mockarm_controller']
position: [0.4800353574685204]
velocity: [0.0]
effort: [0.0]
---
header: 
  seq: 2010
  stamp: 
    secs: 1383345826
    nsecs: 461473718
  frame_id: ''
name: ['mockarm_controller']
position: [0.4800353574685204]
velocity: [0.0]
effort: [0.0]
---
header: 
  seq: 2011
  stamp: 
    secs: 1383345826
    nsecs: 471486494
  frame_id: ''
name: ['mockarm_controller']
position: [0.4800353574685204]
velocity: [0.0]
effort: [0.0]
---
header: 
  seq: 2012
  stamp: 
    secs: 1383345826
    nsecs: 481535104
  frame_id: ''
name: ['mockarm_controller']
position: [0.4800353574685204]
velocity: [0.0]
effort: [0.0]
---
header: 
  seq: 2013
  stamp: 
    secs: 1383345826
    nsecs: 491539935
  frame_id: ''
name: ['mockarm_controller']
position: [0.4800353574685204]
velocity: [0.0]
effort: [0.0]
---
header: 
  seq: 2014
  stamp: 
    secs: 1383345826
    nsecs: 501492995
  frame_id: ''
name: ['mockarm_controller']
position: [0.4800353574685204]
velocity: [0.0]
effort: [0.0]
---
header: 
  seq: 2015
  stamp: 
    secs: 1383345826
    nsecs: 511529978
  frame_id: ''
name: ['mockarm_controller']
position: [0.4800353574685204]
velocity: [0.0]
effort: [0.0]
---
header: 
  seq: 2016
  stamp: 
    secs: 1383345826
    nsecs: 521538192
  frame_id: ''
name: ['mockarm_controller']
position: [0.4800353574685204]
velocity: [0.0]
effort: [0.0]
---
header: 
  seq: 2017
  stamp: 
    secs: 1383345826
    nsecs: 531480468
  frame_id: ''
name: ['mockarm_controller']
position: [0.4800353574685204]
velocity: [0.0]
effort: [0.0]
---
header: 
  seq: 2018
  stamp: 
    secs: 1383345826
    nsecs: 541540669
  frame_id: ''
name: ['mockarm_controller']
position: [0.4800353574685204]
velocity: [0.0]
effort: [0.0]
---
header: 
  seq: 2019
  stamp: 
    secs: 1383345826
    nsecs: 551545810
  frame_id: ''
name: ['mockarm_controller']
position: [0.4800353574685204]
velocity: [0.0]
effort: [0.0]
---
header: 
  seq: 2020
  stamp: 
    secs: 1383345826
    nsecs: 561545463
  frame_id: ''
name: ['mockarm_controller']
position: [0.4800353574685204]
velocity: [0.0]
effort: [0.0]
---
header: 
  seq: 2021
  stamp: 
    secs: 1383345826
    nsecs: 571547455
  frame_id: ''
name: ['mockarm_controller']
position: [0.4800353574685204]
velocity: [0.0]
effort: [0.0]
---
header: 
  seq: 2022
  stamp: 
    secs: 1383345826
    nsecs: 581544718
  frame_id: ''
name: ['mockarm_controller']
position: [0.4800353574685204]
velocity: [0.0]
effort: [0.0]
---
header: 
  seq: 2023
  stamp: 
    secs: 1383345826
    nsecs: 591509222
  frame_id: ''
name: ['mockarm_controller']
position: [0.4800353574685204]
velocity: [0.0]
effort: [0.0]
---
header: 
  seq: 2024
  stamp: 
    secs: 1383345826
    nsecs: 601587884
  frame_id: ''
name: ['mockarm_controller']
position: [0.4800353574685204]
velocity: [0.0]
effort: [0.0]
---
header: 
  seq: 2025
  stamp: 
    secs: 1383345826
    nsecs: 611546146
  frame_id: ''
name: ['mockarm_controller']
position: [0.4800353574685204]
velocity: [0.0]
effort: [0.0]
---
header: 
  seq: 2026
  stamp: 
    secs: 1383345826
    nsecs: 621547433
  frame_id: ''
name: ['mockarm_controller']
position: [0.4800353574685204]
velocity: [0.0]
effort: [0.0]
---
header: 
  seq: 2027
  stamp: 
    secs: 1383345826
    nsecs: 631546389
  frame_id: ''
name: ['mockarm_controller']
position: [0.4800353574685204]
velocity: [0.0]
effort: [0.0]
---
header: 
  seq: 2028
  stamp: 
    secs: 1383345826
    nsecs: 641542544
  frame_id: ''
name: ['mockarm_controller']
position: [0.4800353574685204]
velocity: [0.0]
effort: [0.0]
---
header: 
  seq: 2029
  stamp: 
    secs: 1383345826
    nsecs: 651537123
  frame_id: ''
name: ['mockarm_controller']
position: [0.4800353574685204]
velocity: [0.0]
effort: [0.0]
---
header: 
  seq: 2030
  stamp: 
    secs: 1383345826
    nsecs: 661542412
  frame_id: ''
name: ['mockarm_controller']
position: [0.4800353574685204]
velocity: [0.0]
effort: [0.0]
---
header: 
  seq: 2031
  stamp: 
    secs: 1383345826
    nsecs: 671546424
  frame_id: ''
name: ['mockarm_controller']
position: [0.4800353574685204]
velocity: [0.0]
effort: [0.0]
---
header: 
  seq: 2032
  stamp: 
    secs: 1383345826
    nsecs: 681546126
  frame_id: ''
name: ['mockarm_controller']
position: [0.4800353574685204]
velocity: [0.0]
effort: [0.0]
---
header: 
  seq: 2033
  stamp: 
    secs: 1383345826
    nsecs: 691546014
  frame_id: ''
name: ['mockarm_controller']
position: [0.4800353574685204]
velocity: [0.0]
effort: [0.0]
---
header: 
  seq: 2034
  stamp: 
    secs: 1383345826
    nsecs: 701539483
  frame_id: ''
name: ['mockarm_controller']
position: [0.4800353574685204]
velocity: [0.0]
effort: [0.0]
---
header: 
  seq: 2035
  stamp: 
    secs: 1383345826
    nsecs: 711541488
  frame_id: ''
name: ['mockarm_controller']
position: [0.4800353574685204]
velocity: [0.0]
effort: [0.0]
---
header: 
  seq: 2036
  stamp: 
    secs: 1383345826
    nsecs: 721547189
  frame_id: ''
name: ['mockarm_controller']
position: [0.4800353574685204]
velocity: [0.0]
effort: [0.0]
---
header: 
  seq: 2037
  stamp: 
    secs: 1383345826
    nsecs: 731546713
  frame_id: ''
name: ['mockarm_controller']
position: [0.4800353574685204]
velocity: [0.0]
effort: [0.0]
---
header: 
  seq: 2038
  stamp: 
    secs: 1383345826
    nsecs: 741540852
  frame_id: ''
name: ['mockarm_controller']
position: [0.4800353574685204]
velocity: [0.0]
effort: [0.0]
---
header: 
  seq: 2039
  stamp: 
    secs: 1383345826
    nsecs: 751479757
  frame_id: ''
name: ['mockarm_controller']
position: [0.4800353574685204]
velocity: [0.0]
effort: [0.0]
---
header: 
  seq: 2040
  stamp: 
    secs: 1383345826
    nsecs: 761542217
  frame_id: ''
name: ['mockarm_controller']
position: [0.4800353574685204]
velocity: [0.0]
effort: [0.0]
---
header: 
  seq: 2041
  stamp: 
    secs: 1383345826
    nsecs: 771546537
  frame_id: ''
name: ['mockarm_controller']
position: [0.4800353574685204]
velocity: [0.0]
effort: [0.0]
---
header: 
  seq: 2042
  stamp: 
    secs: 1383345826
    nsecs: 781547046
  frame_id: ''
name: ['mockarm_controller']
position: [0.4800353574685204]
velocity: [0.0]
effort: [0.0]
---
header: 
  seq: 2043
  stamp: 
    secs: 1383345826
    nsecs: 791547619
  frame_id: ''
name: ['mockarm_controller']
position: [0.4800353574685204]
velocity: [0.0]
effort: [0.0]
---
header: 
  seq: 2044
  stamp: 
    secs: 1383345826
    nsecs: 801543994
  frame_id: ''
name: ['mockarm_controller']
position: [0.4800353574685204]
velocity: [0.0]
effort: [0.0]
---
header: 
  seq: 2045
  stamp: 
    secs: 1383345826
    nsecs: 811546462
  frame_id: ''
name: ['mockarm_controller']
position: [0.4800353574685204]
velocity: [0.0]
effort: [0.0]
---
header: 
  seq: 2046
  stamp: 
    secs: 1383345826
    nsecs: 821543505
  frame_id: ''
name: ['mockarm_controller']
position: [0.4800353574685204]
velocity: [0.0]
effort: [0.0]
---
header: 
  seq: 2047
  stamp: 
    secs: 1383345826
    nsecs: 831541174
  frame_id: ''
name: ['mockarm_controller']
position: [0.4800353574685204]
velocity: [0.0]
effort: [0.0]
---
header: 
  seq: 2048
  stamp: 
    secs: 1383345826
    nsecs: 841546655
  frame_id: ''
name: ['mockarm_controller']
position: [0.4800353574685204]
velocity: [0.0]
effort: [0.0]
---
header: 
  seq: 2049
  stamp: 
    secs: 1383345826
    nsecs: 851543480
  frame_id: ''
name: ['mockarm_controller']
position: [0.4800353574685204]
velocity: [0.0]
effort: [0.0]
---
header: 
  seq: 2050
  stamp: 
    secs: 1383345826
    nsecs: 861545091
  frame_id: ''
name: ['mockarm_controller']
position: [0.4800353574685204]
velocity: [0.0]
effort: [0.0]
---
header: 
  seq: 2051
  stamp: 
    secs: 1383345826
    nsecs: 871548324
  frame_id: ''
name: ['mockarm_controller']
position: [0.4752531553180559]
velocity: [-0.4609351470327217]
effort: [0.0]
---
header: 
  seq: 2052
  stamp: 
    secs: 1383345826
    nsecs: 881546725
  frame_id: ''
name: ['mockarm_controller']
position: [0.46785295928959997]
velocity: [-0.7468156250333969]
effort: [0.0]
---
header: 
  seq: 2053
  stamp: 
    secs: 1383345826
    nsecs: 891546354
  frame_id: ''
name: ['mockarm_controller']
position: [0.46443211395569106]
velocity: [-0.33699589537079166]
effort: [0.0]
---
header: 
  seq: 2054
  stamp: 
    secs: 1383345826
    nsecs: 901486701
  frame_id: ''
name: ['mockarm_controller']
position: [0.45877724717922946]
velocity: [-0.5620022636117669]
effort: [0.0]
---
header: 
  seq: 2055
  stamp: 
    secs: 1383345826
    nsecs: 911547245
  frame_id: ''
name: ['mockarm_controller']
position: [0.45376815222600575]
velocity: [-0.4915214358967436]
effort: [0.0]
---
header: 
  seq: 2056
  stamp: 
    secs: 1383345826
    nsecs: 921546315
  frame_id: ''
name: ['mockarm_controller']
position: [0.4491081231231809]
velocity: [-0.46116072269419794]
effort: [0.0]
---
header: 
  seq: 2057
  stamp: 
    secs: 1383345826
    nsecs: 931547278
  frame_id: ''
name: ['mockarm_controller']
position: [0.4439594018297976]
velocity: [-0.505668954368816]
effort: [0.0]
---
header: 
  seq: 2058
  stamp: 
    secs: 1383345826
    nsecs: 941546345
  frame_id: ''
name: ['mockarm_controller']
position: [0.4391597463868132]
velocity: [-0.4728724574368853]
effort: [0.0]
---
header: 
  seq: 2059
  stamp: 
    secs: 1383345826
    nsecs: 951546536
  frame_id: ''
name: ['mockarm_controller']
position: [0.43422046460366925]
velocity: [-0.4891831022228341]
effort: [0.0]
---
header: 
  seq: 2060
  stamp: 
    secs: 1383345826
    nsecs: 961545098
  frame_id: ''
name: ['mockarm_controller']
position: [0.42929863611304525]
velocity: [-0.48649090546841983]
effort: [0.0]
---
header: 
  seq: 2061
  stamp: 
    secs: 1383345826
    nsecs: 971546257
  frame_id: ''
name: ['mockarm_controller']
position: [0.4242895411598215]
velocity: [-0.49036661313986973]
effort: [0.0]
---
header: 
  seq: 2062
  stamp: 
    secs: 1383345826
    nsecs: 981547029
  frame_id: ''
name: ['mockarm_controller']
position: [0.4193502593766775]
velocity: [-0.49005673014624035]
effort: [0.0]
---
header: 
  seq: 2063
  stamp: 
    secs: 1383345826
    nsecs: 991545614
  frame_id: ''
name: ['mockarm_controller']
position: [0.4144109775935336]
velocity: [-0.4855285346646909]
effort: [0.0]
---
header: 
  seq: 2064
  stamp: 
    secs: 1383345827
    nsecs: 1544250
  frame_id: ''
name: ['mockarm_controller']
position: [0.40947169581038967]
velocity: [-0.4873489672564338]
effort: [0.0]
---
header: 
  seq: 2065
  stamp: 
    secs: 1383345827
    nsecs: 11546075
  frame_id: ''
name: ['mockarm_controller']
position: [0.4045498673197656]
velocity: [-0.4883250809231133]
effort: [0.0]
---
header: 
  seq: 2066
  stamp: 
    secs: 1383345827
    nsecs: 21544578
  frame_id: ''
name: ['mockarm_controller']
position: [0.3995756789515818]
velocity: [-0.49161774739907166]
effort: [0.0]
---
header: 
  seq: 2067
  stamp: 
    secs: 1383345827
    nsecs: 31547626
  frame_id: ''
name: ['mockarm_controller']
position: [0.3945665839983581]
velocity: [-0.49195589797915085]
effort: [0.0]
---
header: 
  seq: 2068
  stamp: 
    secs: 1383345827
    nsecs: 41481952
  frame_id: ''
name: ['mockarm_controller']
position: [0.3896098489226942]
velocity: [-0.4926682313551248]
effort: [0.0]
---
header: 
  seq: 2069
  stamp: 
    secs: 1383345827
    nsecs: 51484248
  frame_id: ''
name: ['mockarm_controller']
position: [0.3846356605545103]
velocity: [-0.4941083111337899]
effort: [0.0]
---
header: 
  seq: 2070
  stamp: 
    secs: 1383345827
    nsecs: 61542836
  frame_id: ''
name: ['mockarm_controller']
position: [0.37964401889380656]
velocity: [-0.4805199904412554]
effort: [0.0]
---
header: 
  seq: 2071
  stamp: 
    secs: 1383345827
    nsecs: 71548018
  frame_id: ''
name: ['mockarm_controller']
position: [0.3747047371106626]
velocity: [-0.49921990935354316]
effort: [0.0]
---
header: 
  seq: 2072
  stamp: 
    secs: 1383345827
    nsecs: 81542281
  frame_id: ''
name: ['mockarm_controller']
position: [0.36973054874247874]
velocity: [-0.4898747654307527]
effort: [0.0]
---
header: 
  seq: 2073
  stamp: 
    secs: 1383345827
    nsecs: 91546467
  frame_id: ''
name: ['mockarm_controller']
position: [0.364721453789255]
velocity: [-0.49384747640971255]
effort: [0.0]
---
header: 
  seq: 2074
  stamp: 
    secs: 1383345827
    nsecs: 101807005
  frame_id: ''
name: ['mockarm_controller']
position: [0.3596599989584715]
velocity: [-0.4974402782096824]
effort: [0.0]
---
header: 
  seq: 2075
  stamp: 
    secs: 1383345827
    nsecs: 111547138
  frame_id: ''
name: ['mockarm_controller']
position: [0.35473817046784745]
velocity: [-0.48910150955222687]
effort: [0.0]
---
header: 
  seq: 2076
  stamp: 
    secs: 1383345827
    nsecs: 121542752
  frame_id: ''
name: ['mockarm_controller']
position: [0.34972907551462373]
velocity: [-0.495410439444537]
effort: [0.0]
---
header: 
  seq: 2077
  stamp: 
    secs: 1383345827
    nsecs: 131546602
  frame_id: ''
name: ['mockarm_controller']
position: [0.34480724702399973]
velocity: [-0.48324285622228796]
effort: [0.0]
---
header: 
  seq: 2078
  stamp: 
    secs: 1383345827
    nsecs: 141542453
  frame_id: ''
name: ['mockarm_controller']
position: [0.3397108856081763]
velocity: [-0.5024510909813098]
effort: [0.0]
---
header: 
  seq: 2079
  stamp: 
    secs: 1383345827
    nsecs: 151542713
  frame_id: ''
name: ['mockarm_controller']
position: [0.33477160382503235]
velocity: [-0.48758951462427996]
effort: [0.0]
---
header: 
  seq: 2080
  stamp: 
    secs: 1383345827
    nsecs: 161543498
  frame_id: ''
name: ['mockarm_controller']
position: [0.3296752424092089]
velocity: [-0.5056917459638246]
effort: [0.0]
---
header: 
  seq: 2081
  stamp: 
    secs: 1383345827
    nsecs: 171513624
  frame_id: ''
name: ['mockarm_controller']
position: [0.3246836007485051]
velocity: [-0.47803501826315037]
effort: [0.0]
---
header: 
  seq: 2082
  stamp: 
    secs: 1383345827
    nsecs: 181481577
  frame_id: ''
name: ['mockarm_controller']
position: [0.31981413213544096]
velocity: [-0.49381083186939895]
effort: [0.0]
---
header: 
  seq: 2083
  stamp: 
    secs: 1383345827
    nsecs: 191541374
  frame_id: ''
name: ['mockarm_controller']
position: [0.3148050371822172]
velocity: [-0.49496985703792196]
effort: [0.0]
---
header: 
  seq: 2084
  stamp: 
    secs: 1383345827
    nsecs: 201476102
  frame_id: ''
name: ['mockarm_controller']
position: [0.3148050371822172]
velocity: [-0.49496985703792196]
effort: [0.0]
---
header: 
  seq: 2085
  stamp: 
    secs: 1383345827
    nsecs: 211475715
  frame_id: ''
name: ['mockarm_controller']
position: [0.3097959422289935]
velocity: [-0.495900896270044]
