header: 
  seq: 1142
  stamp: 
    secs: 1383345710
    nsecs: 781976705
  frame_id: ''
name: ['mockarm_controller']
position: [0.8110545034017649]
velocity: [0.49522780254409576]
effort: [0.0]
---
header: 
  seq: 1143
  stamp: 
    secs: 1383345710
    nsecs: 791975558
  frame_id: ''
name: ['mockarm_controller']
position: [0.8160810516475085]
velocity: [0.4901080582823389]
effort: [0.0]
---
header: 
  seq: 1144
  stamp: 
    secs: 1383345710
    nsecs: 801976573
  frame_id: ''
name: ['mockarm_controller']
position: [0.8210726933082124]
velocity: [0.49598983115102063]
effort: [0.0]
---
header: 
  seq: 1145
  stamp: 
    secs: 1383345710
    nsecs: 811972826
  frame_id: ''
name: ['mockarm_controller']
position: [0.8260294283838763]
velocity: [0.4924235123846467]
effort: [0.0]
---
header: 
  seq: 1146
  stamp: 
    secs: 1383345710
    nsecs: 821947512
  frame_id: ''
name: ['mockarm_controller']
position: [0.8310734299221398]
velocity: [0.4965545912840682]
effort: [0.0]
---
header: 
  seq: 1147
  stamp: 
    secs: 1383345710
    nsecs: 831986219
  frame_id: ''
name: ['mockarm_controller']
position: [0.8361174314604035]
velocity: [0.49950500477952825]
effort: [0.0]
---
header: 
  seq: 1148
  stamp: 
    secs: 1383345710
    nsecs: 841979705
  frame_id: ''
name: ['mockarm_controller']
position: [0.8411439797061472]
velocity: [0.5027050950838752]
effort: [0.0]
---
header: 
  seq: 1149
  stamp: 
    secs: 1383345710
    nsecs: 851979071
  frame_id: ''
name: ['mockarm_controller']
position: [0.846118168074331]
velocity: [0.4905511211226689]
effort: [0.0]
---
header: 
  seq: 1150
  stamp: 
    secs: 1383345710
    nsecs: 861977936
  frame_id: ''
name: ['mockarm_controller']
position: [0.8511098097350348]
velocity: [0.4904826236320881]
effort: [0.0]
---
header: 
  seq: 1151
  stamp: 
    secs: 1383345710
    nsecs: 871977388
  frame_id: ''
name: ['mockarm_controller']
position: [0.8561189046882585]
velocity: [0.49046264106762544]
effort: [0.0]
---
header: 
  seq: 1152
  stamp: 
    secs: 1383345710
    nsecs: 881975844
  frame_id: ''
name: ['mockarm_controller']
position: [0.8611105463489623]
velocity: [0.49270966940123107]
effort: [0.0]
---
header: 
  seq: 1153
  stamp: 
    secs: 1383345710
    nsecs: 891978775
  frame_id: ''
name: ['mockarm_controller']
position: [0.8660672814246262]
velocity: [0.4911548826460418]
effort: [0.0]
---
header: 
  seq: 1154
  stamp: 
    secs: 1383345710
    nsecs: 901977560
  frame_id: ''
name: ['mockarm_controller']
position: [0.8711287362554098]
velocity: [0.4972936560015302]
effort: [0.0]
---
header: 
  seq: 1155
  stamp: 
    secs: 1383345710
    nsecs: 911979412
  frame_id: ''
name: ['mockarm_controller']
position: [0.8761727377936733]
velocity: [0.5092379140094463]
effort: [0.0]
---
header: 
  seq: 1156
  stamp: 
    secs: 1383345710
    nsecs: 921974832
  frame_id: ''
name: ['mockarm_controller']
position: [0.8786860119165452]
velocity: [0.24149842633533522]
effort: [0.0]
---
header: 
  seq: 1157
  stamp: 
    secs: 1383345710
    nsecs: 931978486
  frame_id: ''
name: ['mockarm_controller']
position: [0.8774642814401492]
velocity: [-0.1236694479599104]
effort: [0.0]
---
header: 
  seq: 1158
  stamp: 
    secs: 1383345710
    nsecs: 941978059
  frame_id: ''
name: ['mockarm_controller']
position: [0.8758760318208343]
velocity: [-0.15394490833720256]
effort: [0.0]
---
header: 
  seq: 1159
  stamp: 
    secs: 1383345710
    nsecs: 951979147
  frame_id: ''
name: ['mockarm_controller']
position: [0.8754920593853955]
velocity: [-0.03811140798399512]
effort: [0.0]
---
header: 
  seq: 1160
  stamp: 
    secs: 1383345710
    nsecs: 961971952
  frame_id: ''
name: ['mockarm_controller']
position: [0.8755618725554754]
velocity: [0.006854508598901645]
effort: [0.0]
---
header: 
  seq: 1161
  stamp: 
    secs: 1383345710
    nsecs: 971978418
  frame_id: ''
name: ['mockarm_controller']
position: [0.8754746060928756]
velocity: [-0.008718799340564598]
effort: [0.0]
---
header: 
  seq: 1162
  stamp: 
    secs: 1383345710
    nsecs: 981931625
  frame_id: ''
name: ['mockarm_controller']
position: [0.8752128067050765]
velocity: [-0.02551153652301044]
effort: [0.0]
---
header: 
  seq: 1163
  stamp: 
    secs: 1383345710
    nsecs: 991975172
  frame_id: ''
name: ['mockarm_controller']
position: [0.8751429935349967]
velocity: [-0.00693416468810223]
effort: [0.0]
---
header: 
  seq: 1164
  stamp: 
    secs: 1383345711
    nsecs: 1980130
  frame_id: ''
name: ['mockarm_controller']
position: [0.8751604468275166]
velocity: [0.001754981651070669]
effort: [0.0]
---
header: 
  seq: 1165
  stamp: 
    secs: 1383345711
    nsecs: 11978462
  frame_id: ''
name: ['mockarm_controller']
position: [0.8751604468275166]
velocity: [0.0]
effort: [0.0]
---
header: 
  seq: 1166
  stamp: 
    secs: 1383345711
    nsecs: 21978485
  frame_id: ''
name: ['mockarm_controller']
position: [0.8751953534125565]
velocity: [0.003397234553762202]
effort: [0.0]
---
header: 
  seq: 1167
  stamp: 
    secs: 1383345711
    nsecs: 31909180
  frame_id: ''
name: ['mockarm_controller']
position: [0.8752302599975964]
velocity: [0.0034421245478657558]
effort: [0.0]
---
header: 
  seq: 1168
  stamp: 
    secs: 1383345711
    nsecs: 41979207
  frame_id: ''
name: ['mockarm_controller']
position: [0.8752477132901164]
velocity: [0.0017169987722586153]
effort: [0.0]
---
header: 
  seq: 1169
  stamp: 
    secs: 1383345711
    nsecs: 51978921
  frame_id: ''
name: ['mockarm_controller']
position: [0.8752651665826363]
velocity: [0.0017183511391058188]
effort: [0.0]
---
header: 
  seq: 1170
  stamp: 
    secs: 1383345711
    nsecs: 61977433
  frame_id: ''
name: ['mockarm_controller']
position: [0.8752651665826363]
velocity: [0.0]
effort: [0.0]
---
header: 
  seq: 1171
  stamp: 
    secs: 1383345711
    nsecs: 71978452
  frame_id: ''
name: ['mockarm_controller']
position: [0.8752651665826363]
velocity: [0.0]
effort: [0.0]
---
header: 
  seq: 1172
  stamp: 
    secs: 1383345711
    nsecs: 81976274
  frame_id: ''
name: ['mockarm_controller']
position: [0.8752651665826363]
velocity: [0.0]
effort: [0.0]
---
header: 
  seq: 1173
  stamp: 
    secs: 1383345711
    nsecs: 91979069
  frame_id: ''
name: ['mockarm_controller']
position: [0.8752651665826363]
velocity: [0.0]
effort: [0.0]
---
header: 
  seq: 1174
  stamp: 
    secs: 1383345711
    nsecs: 101974615
  frame_id: ''
name: ['mockarm_controller']
position: [0.8752826198751562]
velocity: [0.001722421051998204]
effort: [0.0]
---
header: 
  seq: 1175
  stamp: 
    secs: 1383345711
    nsecs: 111978447
  frame_id: ''
name: ['mockarm_controller']
position: [0.875352433045236]
velocity: [0.006926596892530335]
effort: [0.0]
---
header: 
  seq: 1176
  stamp: 
    secs: 1383345711
    nsecs: 121974914
  frame_id: ''
name: ['mockarm_controller']
position: [0.8754047929227958]
velocity: [0.005297438037212104]
effort: [0.0]
---
header: 
  seq: 1177
  stamp: 
    secs: 1383345711
    nsecs: 131976500
  frame_id: ''
name: ['mockarm_controller']
position: [0.8754222462153158]
velocity: [0.0016791699557445474]
effort: [0.0]
---
header: 
  seq: 1178
  stamp: 
    secs: 1383345711
    nsecs: 141974742
  frame_id: ''
name: ['mockarm_controller']
position: [0.8754222462153158]
velocity: [0.0]
effort: [0.0]
---
header: 
  seq: 1179
  stamp: 
    secs: 1383345711
    nsecs: 151979469
  frame_id: ''
name: ['mockarm_controller']
position: [0.8754396995078357]
velocity: [0.0016077093330782795]
effort: [0.0]
---
header: 
  seq: 1180
  stamp: 
    secs: 1383345711
    nsecs: 161969167
  frame_id: ''
name: ['mockarm_controller']
position: [0.8754396995078357]
velocity: [0.0]
effort: [0.0]
---
header: 
  seq: 1181
  stamp: 
    secs: 1383345711
    nsecs: 171978873
  frame_id: ''
name: ['mockarm_controller']
position: [0.8754571528003556]
velocity: [0.0017214017674226062]
effort: [0.0]
---
header: 
  seq: 1182
  stamp: 
    secs: 1383345711
    nsecs: 181978615
  frame_id: ''
name: ['mockarm_controller']
position: [0.8754746060928756]
velocity: [0.0017309622651997245]
effort: [0.0]
---
header: 
  seq: 1183
  stamp: 
    secs: 1383345711
    nsecs: 191978707
  frame_id: ''
name: ['mockarm_controller']
position: [0.8755269659704354]
velocity: [0.005140376748459104]
effort: [0.0]
---
header: 
  seq: 1184
  stamp: 
    secs: 1383345711
    nsecs: 201973404
  frame_id: ''
name: ['mockarm_controller']
position: [0.8755793258479952]
velocity: [0.005170324633139571]
effort: [0.0]
---
header: 
  seq: 1185
  stamp: 
    secs: 1383345711
    nsecs: 211978611
  frame_id: ''
name: ['mockarm_controller']
position: [0.8756316857255552]
velocity: [0.0052083833243723714]
effort: [0.0]
---
header: 
  seq: 1186
  stamp: 
    secs: 1383345711
    nsecs: 221975510
  frame_id: ''
name: ['mockarm_controller']
position: [0.875684045603115]
velocity: [0.005148970160271849]
effort: [0.0]
---
header: 
  seq: 1187
  stamp: 
    secs: 1383345711
    nsecs: 231975326
  frame_id: ''
name: ['mockarm_controller']
position: [0.8757189521881549]
velocity: [0.0034441623127682906]
effort: [0.0]
---
header: 
  seq: 1188
  stamp: 
    secs: 1383345711
    nsecs: 241975511
  frame_id: ''
name: ['mockarm_controller']
position: [0.8757364054806748]
velocity: [0.0017241225446900919]
effort: [0.0]
---
header: 
  seq: 1189
  stamp: 
    secs: 1383345711
    nsecs: 251973998
  frame_id: ''
name: ['mockarm_controller']
position: [0.8757538587731947]
velocity: [0.0017581638480807698]
effort: [0.0]
---
header: 
  seq: 1190
  stamp: 
    secs: 1383345711
    nsecs: 261973182
  frame_id: ''
name: ['mockarm_controller']
position: [0.8757713120657147]
velocity: [0.0017214017674335562]
effort: [0.0]
---
header: 
  seq: 1191
  stamp: 
    secs: 1383345711
    nsecs: 271974203
  frame_id: ''
name: ['mockarm_controller']
position: [0.8757713120657147]
velocity: [0.0]
effort: [0.0]
---
header: 
  seq: 1192
  stamp: 
    secs: 1383345711
    nsecs: 281908115
  frame_id: ''
name: ['mockarm_controller']
position: [0.8757887653582346]
velocity: [0.0017242928788675956]
effort: [0.0]
---
header: 
  seq: 1193
  stamp: 
    secs: 1383345711
    nsecs: 291976777
  frame_id: ''
name: ['mockarm_controller']
position: [0.8758062186507546]
velocity: [0.0017217413948908773]
effort: [0.0]
---
header: 
  seq: 1194
  stamp: 
    secs: 1383345711
    nsecs: 301913837
  frame_id: ''
name: ['mockarm_controller']
position: [0.8758062186507546]
velocity: [0.0]
effort: [0.0]
---
header: 
  seq: 1195
  stamp: 
    secs: 1383345711
    nsecs: 311981163
  frame_id: ''
name: ['mockarm_controller']
position: [0.8758236719432745]
velocity: [0.0017610021713144789]
effort: [0.0]
---
header: 
  seq: 1196
  stamp: 
    secs: 1383345711
    nsecs: 321922866
  frame_id: ''
name: ['mockarm_controller']
position: [0.8758236719432745]
velocity: [0.0]
effort: [0.0]
---
header: 
  seq: 1197
  stamp: 
    secs: 1383345711
    nsecs: 331913628
  frame_id: ''
name: ['mockarm_controller']
position: [0.8758236719432745]
velocity: [0.0]
effort: [0.0]
---
header: 
  seq: 1198
  stamp: 
    secs: 1383345711
    nsecs: 341914245
  frame_id: ''
name: ['mockarm_controller']
position: [0.8758411252357944]
velocity: [0.0017321647995134776]
effort: [0.0]
---
header: 
  seq: 1199
  stamp: 
    secs: 1383345711
    nsecs: 351913162
  frame_id: ''
name: ['mockarm_controller']
position: [0.8758411252357944]
velocity: [0.0]
effort: [0.0]
---
header: 
  seq: 1200
  stamp: 
    secs: 1383345711
    nsecs: 361911086
  frame_id: ''
name: ['mockarm_controller']
position: [0.8758411252357944]
velocity: [0.0]
effort: [0.0]
---
header: 
  seq: 1201
  stamp: 
    secs: 1383345711
    nsecs: 371913928
  frame_id: ''
name: ['mockarm_controller']
position: [0.8758411252357944]
velocity: [0.0]
effort: [0.0]
---
header: 
  seq: 1202
  stamp: 
    secs: 1383345711
    nsecs: 381915205
  frame_id: ''
name: ['mockarm_controller']
position: [0.8758411252357944]
velocity: [0.0]
effort: [0.0]
---
header: 
  seq: 1203
  stamp: 
    secs: 1383345711
    nsecs: 391919399
  frame_id: ''
name: ['mockarm_controller']
position: [0.8758411252357944]
velocity: [0.0]
effort: [0.0]
---
header: 
  seq: 1204
  stamp: 
    secs: 1383345711
    nsecs: 401905802
  frame_id: ''
name: ['mockarm_controller']
position: [0.8758585785283144]
velocity: [0.0017229311470887288]
effort: [0.0]
---
header: 
  seq: 1205
  stamp: 
    secs: 1383345711
    nsecs: 411905686
  frame_id: ''
name: ['mockarm_controller']
position: [0.8758585785283144]
velocity: [0.0]
effort: [0.0]
---
header: 
  seq: 1206
  stamp: 
    secs: 1383345711
    nsecs: 421904999
  frame_id: ''
name: ['mockarm_controller']
position: [0.8758585785283144]
velocity: [0.0]
effort: [0.0]
---
header: 
  seq: 1207
  stamp: 
    secs: 1383345711
    nsecs: 431888791
  frame_id: ''
name: ['mockarm_controller']
position: [0.8758585785283144]
velocity: [0.0]
effort: [0.0]
---
header: 
  seq: 1208
  stamp: 
    secs: 1383345711
    nsecs: 441981459
  frame_id: ''
name: ['mockarm_controller']
position: [0.8758585785283144]
velocity: [0.0]
effort: [0.0]
---
header: 
  seq: 1209
  stamp: 
    secs: 1383345711
    nsecs: 451977241
  frame_id: ''
name: ['mockarm_controller']
position: [0.8758585785283144]
velocity: [0.0]
effort: [0.0]
---
header: 
  seq: 1210
  stamp: 
    secs: 1383345711
    nsecs: 461976260
  frame_id: ''
name: ['mockarm_controller']
position: [0.8758585785283144]
velocity: [0.0]
effort: [0.0]
---
header: 
  seq: 1211
  stamp: 
    secs: 1383345711
    nsecs: 471976851
  frame_id: ''
name: ['mockarm_controller']
position: [0.8758585785283144]
velocity: [0.0]
effort: [0.0]
---
header: 
  seq: 1212
  stamp: 
    secs: 1383345711
    nsecs: 481978608
  frame_id: ''
name: ['mockarm_controller']
position: [0.8758585785283144]
velocity: [0.0]
effort: [0.0]
---
header: 
  seq: 1213
  stamp: 
    secs: 1383345711
    nsecs: 491979026
  frame_id: ''
name: ['mockarm_controller']
position: [0.8758585785283144]
velocity: [0.0]
effort: [0.0]
---
header: 
  seq: 1214
  stamp: 
    secs: 1383345711
    nsecs: 501977360
  frame_id: ''
name: ['mockarm_controller']
position: [0.8758585785283144]
velocity: [0.0]
effort: [0.0]
---
header: 
  seq: 1215
  stamp: 
    secs: 1383345711
    nsecs: 511979614
  frame_id: ''
name: ['mockarm_controller']
position: [0.8758585785283144]
velocity: [0.0]
effort: [0.0]
---
header: 
  seq: 1216
  stamp: 
    secs: 1383345711
    nsecs: 521975713
  frame_id: ''
name: ['mockarm_controller']
position: [0.8758585785283144]
velocity: [0.0]
effort: [0.0]
---
header: 
  seq: 1217
  stamp: 
    secs: 1383345711
    nsecs: 531976817
  frame_id: ''
name: ['mockarm_controller']
position: [0.8758585785283144]
velocity: [0.0]
effort: [0.0]
---
header: 
  seq: 1218
  stamp: 
    secs: 1383345711
    nsecs: 541975881
  frame_id: ''
name: ['mockarm_controller']
position: [0.8758585785283144]
velocity: [0.0]
effort: [0.0]
---
header: 
  seq: 1219
  stamp: 
    secs: 1383345711
    nsecs: 551976387
  frame_id: ''
name: ['mockarm_controller']
position: [0.8758585785283144]
velocity: [0.0]
effort: [0.0]
---
header: 
  seq: 1220
  stamp: 
    secs: 1383345711
    nsecs: 561931046
  frame_id: ''
name: ['mockarm_controller']
position: [0.8758585785283144]
velocity: [0.0]
effort: [0.0]
---
header: 
  seq: 1221
  stamp: 
    secs: 1383345711
    nsecs: 571970574
  frame_id: ''
name: ['mockarm_controller']
position: [0.8758585785283144]
velocity: [0.0]
effort: [0.0]
---
header: 
  seq: 1222
  stamp: 
    secs: 1383345711
    nsecs: 581929411
  frame_id: ''
name: ['mockarm_controller']
position: [0.8758585785283144]
velocity: [0.0]
effort: [0.0]
---
header: 
  seq: 1223
  stamp: 
    secs: 1383345711
    nsecs: 591990026
  frame_id: ''
name: ['mockarm_controller']
position: [0.8758585785283144]
velocity: [0.0]
effort: [0.0]
---
header: 
  seq: 1224
  stamp: 
    secs: 1383345711
    nsecs: 601978490
  frame_id: ''
name: ['mockarm_controller']
position: [0.8758585785283144]
velocity: [0.0]
effort: [0.0]
---
header: 
  seq: 1225
  stamp: 
    secs: 1383345711
    nsecs: 611980009
  frame_id: ''
name: ['mockarm_controller']
position: [0.8758585785283144]
velocity: [0.0]
effort: [0.0]
---
header: 
  seq: 1226
  stamp: 
    secs: 1383345711
    nsecs: 621980078
  frame_id: ''
name: ['mockarm_controller']
position: [0.8758585785283144]
velocity: [0.0]
effort: [0.0]
---
header: 
  seq: 1227
  stamp: 
    secs: 1383345711
    nsecs: 631921414
  frame_id: ''
name: ['mockarm_controller']
position: [0.8758585785283144]
velocity: [0.0]
effort: [0.0]
---
header: 
  seq: 1228
  stamp: 
    secs: 1383345711
    nsecs: 641980206
  frame_id: ''
name: ['mockarm_controller']
position: [0.8758585785283144]
velocity: [0.0]
effort: [0.0]
---
header: 
  seq: 1229
  stamp: 
    secs: 1383345711
    nsecs: 651979500
  frame_id: ''
name: ['mockarm_controller']
position: [0.8758585785283144]
velocity: [0.0]
effort: [0.0]
---
header: 
  seq: 1230
  stamp: 
    secs: 1383345711
    nsecs: 661912613
  frame_id: ''
name: ['mockarm_controller']
position: [0.8758585785283144]
velocity: [0.0]
effort: [0.0]
---
header: 
  seq: 1231
  stamp: 
    secs: 1383345711
    nsecs: 671976305
  frame_id: ''
name: ['mockarm_controller']
position: [0.8758585785283144]
velocity: [0.0]
effort: [0.0]
---
header: 
  seq: 1232
  stamp: 
    secs: 1383345711
    nsecs: 681976729
  frame_id: ''
name: ['mockarm_controller']
position: [0.8758585785283144]
velocity: [0.0]
effort: [0.0]
---
header: 
  seq: 1233
  stamp: 
    secs: 1383345711
    nsecs: 691978784
  frame_id: ''
name: ['mockarm_controller']
position: [0.8758585785283144]
velocity: [0.0]
effort: [0.0]
---
header: 
  seq: 1234
  stamp: 
    secs: 1383345711
    nsecs: 701978510
  frame_id: ''
name: ['mockarm_controller']
position: [0.8758585785283144]
velocity: [0.0]
effort: [0.0]
---
header: 
  seq: 1235
  stamp: 
    secs: 1383345711
    nsecs: 711978702
  frame_id: ''
name: ['mockarm_controller']
position: [0.8758585785283144]
velocity: [0.0]
effort: [0.0]
---
header: 
  seq: 1236
  stamp: 
    secs: 1383345711
    nsecs: 721978413
  frame_id: ''
name: ['mockarm_controller']
position: [0.8758585785283144]
velocity: [0.0]
effort: [0.0]
---
header: 
  seq: 1237
  stamp: 
    secs: 1383345711
    nsecs: 731979301
  frame_id: ''
name: ['mockarm_controller']
position: [0.8758585785283144]
velocity: [0.0]
effort: [0.0]
---
header: 
  seq: 1238
  stamp: 
    secs: 1383345711
    nsecs: 741979925
  frame_id: ''
name: ['mockarm_controller']
position: [0.8758585785283144]
velocity: [0.0]
effort: [0.0]
---
header: 
  seq: 1239
  stamp: 
    secs: 1383345711
    nsecs: 751978879
  frame_id: ''
name: ['mockarm_controller']
position: [0.8758585785283144]
velocity: [0.0]
effort: [0.0]
---
header: 
  seq: 1240
  stamp: 
    secs: 1383345711
    nsecs: 761978786
  frame_id: ''
name: ['mockarm_controller']
position: [0.8758585785283144]
velocity: [0.0]
effort: [0.0]
---
header: 
  seq: 1241
  stamp: 
    secs: 1383345711
    nsecs: 771972253
  frame_id: ''
name: ['mockarm_controller']
position: [0.8758585785283144]
velocity: [0.0]
effort: [0.0]
---
header: 
  seq: 1242
  stamp: 
    secs: 1383345711
    nsecs: 781976536
  frame_id: ''
name: ['mockarm_controller']
position: [0.8758585785283144]
velocity: [0.0]
effort: [0.0]
---
header: 
  seq: 1243
  stamp: 
    secs: 1383345711
    nsecs: 791932969
  frame_id: ''
name: ['mockarm_controller']
position: [0.8758585785283144]
velocity: [0.0]
effort: [0.0]
---
header: 
  seq: 1244
  stamp: 
    secs: 1383345711
    nsecs: 801978515
  frame_id: ''
name: ['mockarm_controller']
position: [0.8758585785283144]
velocity: [0.0]
effort: [0.0]
---
header: 
  seq: 1245
  stamp: 
    secs: 1383345711
    nsecs: 811978992
  frame_id: ''
name: ['mockarm_controller']
position: [0.8758585785283144]
velocity: [0.0]
effort: [0.0]
---
header: 
  seq: 1246
  stamp: 
    secs: 1383345711
    nsecs: 821978451
  frame_id: ''
name: ['mockarm_controller']
position: [0.8758585785283144]
velocity: [0.0]
effort: [0.0]
---
header: 
  seq: 1247
  stamp: 
    secs: 1383345711
    nsecs: 831979729
  frame_id: ''
name: ['mockarm_controller']
position: [0.8758585785283144]
velocity: [0.0]
effort: [0.0]
---
header: 
  seq: 1248
  stamp: 
    secs: 1383345711
    nsecs: 841979595
  frame_id: ''
name: ['mockarm_controller']
position: [0.8758585785283144]
velocity: [0.0]
effort: [0.0]
---
header: 
  seq: 1249
  stamp: 
    secs: 1383345711
    nsecs: 851979045
  frame_id: ''
name: ['mockarm_controller']
position: [0.8758585785283144]
velocity: [0.0]
effort: [0.0]
---
header: 
  seq: 1250
  stamp: 
    secs: 1383345711
    nsecs: 861978983
  frame_id: ''
name: ['mockarm_controller']
position: [0.8758585785283144]
velocity: [0.0]
effort: [0.0]
---
header: 
  seq: 1251
  stamp: 
    secs: 1383345711
    nsecs: 871972583
  frame_id: ''
name: ['mockarm_controller']
position: [0.8758585785283144]
velocity: [0.0]
effort: [0.0]
---
header: 
  seq: 1252
  stamp: 
    secs: 1383345711
    nsecs: 881920962
  frame_id: ''
name: ['mockarm_controller']
position: [0.8758585785283144]
velocity: [0.0]
effort: [0.0]
---
header: 
  seq: 1253
  stamp: 
    secs: 1383345711
    nsecs: 891975156
  frame_id: ''
name: ['mockarm_controller']
position: [0.8758585785283144]
velocity: [0.0]
effort: [0.0]
---
header: 
  seq: 1254
  stamp: 
    secs: 1383345711
    nsecs: 901974881
  frame_id: ''
name: ['mockarm_controller']
position: [0.8758585785283144]
velocity: [0.0]
effort: [0.0]
---
header: 
  seq: 1255
  stamp: 
    secs: 1383345711
    nsecs: 911978397
  frame_id: ''
name: ['mockarm_controller']
position: [0.8758585785283144]
velocity: [0.0]
effort: [0.0]
---
header: 
  seq: 1256
  stamp: 
    secs: 1383345711
    nsecs: 921975296
  frame_id: ''
name: ['mockarm_controller']
position: [0.8734849307456021]
velocity: [-0.2352009297178278]
effort: [0.0]
---
header: 
  seq: 1257
  stamp: 
    secs: 1383345711
    nsecs: 931990082
  frame_id: ''
name: ['mockarm_controller']
position: [0.867376278363622]
velocity: [-0.5997106206538492]
effort: [0.0]
---
header: 
  seq: 1258
  stamp: 
    secs: 1383345711
    nsecs: 941976061
  frame_id: ''
name: ['mockarm_controller']
position: [0.860586947573364]
velocity: [-0.6700217892290544]
effort: [0.0]
---
header: 
  seq: 1259
  stamp: 
    secs: 1383345711
    nsecs: 951978932
  frame_id: ''
name: ['mockarm_controller']
position: [0.8550542538445419]
velocity: [-0.5458997265734619]
effort: [0.0]
---
header: 
  seq: 1260
  stamp: 
    secs: 1383345711
    nsecs: 961975013
  frame_id: ''
name: ['mockarm_controller']
position: [0.8503069582791174]
velocity: [-0.46849852614472765]
effort: [0.0]
---
header: 
  seq: 1261
  stamp: 
    secs: 1383345711
    nsecs: 971976012
  frame_id: ''
name: ['mockarm_controller']
position: [0.8454025830810133]
velocity: [-0.48404808508725317]
effort: [0.0]
---
header: 
  seq: 1262
  stamp: 
    secs: 1383345711
    nsecs: 981980995
  frame_id: ''
name: ['mockarm_controller']
position: [0.8399397025222711]
velocity: [-0.5400237800259216]
effort: [0.0]
---
header: 
  seq: 1263
  stamp: 
    secs: 1383345711
    nsecs: 991979475
  frame_id: ''
name: ['mockarm_controller']
position: [0.8346513548887282]
velocity: [-0.5206603951504294]
effort: [0.0]
---
header: 
  seq: 1264
  stamp: 
    secs: 1383345712
    nsecs: 1975229
  frame_id: ''
name: ['mockarm_controller']
position: [0.8297818862756641]
velocity: [-0.48017637442699374]
effort: [0.0]
---
header: 
  seq: 1265
  stamp: 
    secs: 1383345712
    nsecs: 11978842
  frame_id: ''
name: ['mockarm_controller']
position: [0.8249647775401597]
velocity: [-0.47538821035274237]
effort: [0.0]
---
header: 
  seq: 1266
  stamp: 
    secs: 1383345712
    nsecs: 21974241
  frame_id: ''
name: ['mockarm_controller']
position: [0.8202872951448149]
velocity: [-0.4747749081754794]
effort: [0.0]
---
header: 
  seq: 1267
  stamp: 
    secs: 1383345712
    nsecs: 31976018
  frame_id: ''
name: ['mockarm_controller']
position: [0.815365466654191]
velocity: [-0.4725711464833363]
effort: [0.0]
---
header: 
  seq: 1268
  stamp: 
    secs: 1383345712
    nsecs: 41975259
  frame_id: ''
name: ['mockarm_controller']
position: [0.8103214651159273]
velocity: [-0.4967991271805059]
effort: [0.0]
---
header: 
  seq: 1269
  stamp: 
    secs: 1383345712
    nsecs: 51975945
  frame_id: ''
name: ['mockarm_controller']
position: [0.8053123701627036]
velocity: [-0.5058159096459314]
effort: [0.0]
---
header: 
  seq: 1270
  stamp: 
    secs: 1383345712
    nsecs: 61975458
  frame_id: ''
name: ['mockarm_controller']
position: [0.8002334620394]
velocity: [-0.48925037311468866]
effort: [0.0]
---
header: 
  seq: 1271
  stamp: 
    secs: 1383345712
    nsecs: 71913066
  frame_id: ''
name: ['mockarm_controller']
position: [0.7951545539160966]
velocity: [-0.5133840213588873]
effort: [0.0]
---
header: 
  seq: 1272
  stamp: 
    secs: 1383345712
    nsecs: 81908529
  frame_id: ''
name: ['mockarm_controller']
position: [0.7901629122553928]
velocity: [-0.48140048806092783]
effort: [0.0]
---
header: 
  seq: 1273
  stamp: 
    secs: 1383345712
    nsecs: 91906081
  frame_id: ''
name: ['mockarm_controller']
position: [0.7852236304722489]
velocity: [-0.4892800181420462]
effort: [0.0]
---
header: 
  seq: 1274
  stamp: 
    secs: 1383345712
    nsecs: 101913042
  frame_id: ''
name: ['mockarm_controller']
position: [0.7803192552741448]
velocity: [-0.48214463213763764]
effort: [0.0]
---
header: 
  seq: 1275
  stamp: 
    secs: 1383345712
    nsecs: 111911969
  frame_id: ''
name: ['mockarm_controller']
position: [0.7753974267835207]
velocity: [-0.4880829522633934]
effort: [0.0]
---
header: 
  seq: 1276
  stamp: 
    secs: 1383345712
    nsecs: 121929712
  frame_id: ''
name: ['mockarm_controller']
position: [0.7704581450003768]
velocity: [-0.48514701730124316]
effort: [0.0]
---
header: 
  seq: 1277
  stamp: 
    secs: 1383345712
    nsecs: 131977162
  frame_id: ''
name: ['mockarm_controller']
position: [0.7704581450003768]
velocity: [-0.48514701730124316]
effort: [0.0]
---
header: 
  seq: 1278
  stamp: 
    secs: 1383345712
    nsecs: 141971768
  frame_id: ''
name: ['mockarm_controller']
position: [0.7655014099247129]
velocity: [-0.48839640118867417]
effort: [0.0]
---
header: 
  seq: 1279
  stamp: 
    secs: 1383345712
    nsecs: 151972715
  frame_id: ''
name: ['mockarm_controller']
position: [0.7603875952163696]
velocity: [-0.5072222483974785]
effort: [0.0]
---
header: 
  seq: 1280
  stamp: 
    secs: 1383345712
    nsecs: 161992806
  frame_id: ''
name: ['mockarm_controller']
position: [0.7553435936781059]
velocity: [-0.49733795486725263]
effort: [0.0]
---
header: 
  seq: 1281
  stamp: 
    secs: 1383345712
    nsecs: 171983802
  frame_id: ''
name: ['mockarm_controller']
position: [0.7503344987248822]
velocity: [-0.4945788855868541]
effort: [0.0]
---
header: 
  seq: 1282
  stamp: 
    secs: 1383345712
    nsecs: 181909428
  frame_id: ''
name: ['mockarm_controller']
position: [0.7453428570641785]
velocity: [-0.49305034183166346]
effort: [0.0]
---
header: 
  seq: 1283
  stamp: 
    secs: 1383345712
    nsecs: 191973405
  frame_id: ''
name: ['mockarm_controller']
position: [0.7404035752810345]
velocity: [-0.4872047527267663]
effort: [0.0]
---
header: 
  seq: 1284
  stamp: 
    secs: 1383345712
    nsecs: 201939419
  frame_id: ''
name: ['mockarm_controller']
position: [0.7354468402053705]
velocity: [-0.48955408154705826]
effort: [0.0]
---
header: 
  seq: 1285
  stamp: 
    secs: 1383345712
    nsecs: 211926870
  frame_id: ''
name: ['mockarm_controller']
position: [0.7304726518371867]
velocity: [-0.4878568427014381]
effort: [0.0]
---
header: 
  seq: 1286
  stamp: 
    secs: 1383345712
    nsecs: 221980415
  frame_id: ''
name: ['mockarm_controller']
position: [0.7255159167615228]
velocity: [-0.4907172632079848]
effort: [0.0]
---
header: 
  seq: 1287
  stamp: 
    secs: 1383345712
    nsecs: 231914894
  frame_id: ''
name: ['mockarm_controller']
position: [0.7204893685157792]
velocity: [-0.49831944539939205]
effort: [0.0]
---
header: 
  seq: 1288
  stamp: 
    secs: 1383345712
    nsecs: 241974641
  frame_id: ''
name: ['mockarm_controller']
position: [0.7155500867326352]
velocity: [-0.49010535653343484]
effort: [0.0]
---
header: 
  seq: 1289
  stamp: 
    secs: 1383345712
    nsecs: 251988261
  frame_id: ''
name: ['mockarm_controller']
position: [0.7104886319018516]
velocity: [-0.49788066405504366]
effort: [0.0]
---
header: 
  seq: 1290
  stamp: 
    secs: 1383345712
    nsecs: 261976739
  frame_id: ''
name: ['mockarm_controller']
position: [0.7055318968261878]
velocity: [-0.4880597750752121]
effort: [0.0]
---
header: 
  seq: 1291
  stamp: 
    secs: 1383345712
    nsecs: 271978271
  frame_id: ''
name: ['mockarm_controller']
position: [0.7005053485804441]
velocity: [-0.5010015195598193]
effort: [0.0]
---
header: 
  seq: 1292
  stamp: 
    secs: 1383345712
    nsecs: 281992909
  frame_id: ''
name: ['mockarm_controller']
position: [0.6954962536272203]
velocity: [-0.4924395353149597]
effort: [0.0]
---
header: 
  seq: 1293
  stamp: 
    secs: 1383345712
    nsecs: 291994489
  frame_id: ''
name: ['mockarm_controller']
position: [0.6905046119665166]
velocity: [-0.49378194289284405]
effort: [0.0]
---
header: 
  seq: 1294
  stamp: 
    secs: 1383345712
    nsecs: 301977904
  frame_id: ''
name: ['mockarm_controller']
position: [0.6856002367684125]
velocity: [-0.48833766783869853]
effort: [0.0]
---
header: 
  seq: 1295
  stamp: 
    secs: 1383345712
    nsecs: 311975978
  frame_id: ''
name: ['mockarm_controller']
position: [0.6805911418151888]
velocity: [-0.4999096759704361]
effort: [0.0]
---
header: 
  seq: 1296
  stamp: 
    secs: 1383345712
    nsecs: 321975908
  frame_id: ''
name: ['mockarm_controller']
position: [0.6756344067395249]
velocity: [-0.4927172043403434]
effort: [0.0]
---
header: 
  seq: 1297
  stamp: 
    secs: 1383345712
    nsecs: 331911212
  frame_id: ''
name: ['mockarm_controller']
position: [0.6706078584937812]
velocity: [-0.49733335764753805]
effort: [0.0]
---
header: 
  seq: 1298
  stamp: 
    secs: 1383345712
    nsecs: 341994460
  frame_id: ''
name: ['mockarm_controller']
position: [0.6656511234181174]
velocity: [-0.48714841038465395]
effort: [0.0]
---
header: 
  seq: 1299
  stamp: 
    secs: 1383345712
    nsecs: 351980454
  frame_id: ''
name: ['mockarm_controller']
position: [0.6606594817574135]
velocity: [-0.49574353567423496]
effort: [0.0]
---
header: 
  seq: 1300
  stamp: 
    secs: 1383345712
    nsecs: 361980297
  frame_id: ''
name: ['mockarm_controller']
position: [0.6556678400967098]
velocity: [-0.5000141901937054]
effort: [0.0]
---
header: 
  seq: 1301
  stamp: 
    secs: 1383345712
    nsecs: 371980151
  frame_id: ''
name: ['mockarm_controller']
position: [0.6506238385584462]
velocity: [-0.5132798960276347]
effort: [0.0]
---
header: 
  seq: 1302
  stamp: 
    secs: 1383345712
    nsecs: 381975753
  frame_id: ''
name: ['mockarm_controller']
position: [0.6456496501902623]
velocity: [-0.48963366159896277]
effort: [0.0]
---
header: 
  seq: 1303
  stamp: 
    secs: 1383345712
    nsecs: 391979824
  frame_id: ''
name: ['mockarm_controller']
position: [0.6406231019445187]
velocity: [-0.4878249462095951]
effort: [0.0]
---
header: 
  seq: 1304
  stamp: 
    secs: 1383345712
    nsecs: 401979236
  frame_id: ''
name: ['mockarm_controller']
position: [0.6356489135763348]
velocity: [-0.49464880351868173]
effort: [0.0]
---
header: 
  seq: 1305
  stamp: 
    secs: 1383345712
    nsecs: 411978003
  frame_id: ''
name: ['mockarm_controller']
position: [0.6306921785006709]
velocity: [-0.4877716075244887]
effort: [0.0]
---
header: 
  seq: 1306
  stamp: 
    secs: 1383345712
    nsecs: 421977102
  frame_id: ''
name: ['mockarm_controller']
position: [0.6257005368399672]
velocity: [-0.4938796537749838]
effort: [0.0]
---
header: 
  seq: 1307
  stamp: 
    secs: 1383345712
    nsecs: 431977257
  frame_id: ''
name: ['mockarm_controller']
position: [0.6207438017643032]
velocity: [-0.4972148736747884]
effort: [0.0]
---
header: 
  seq: 1308
  stamp: 
    secs: 1383345712
    nsecs: 441979775
  frame_id: ''
name: ['mockarm_controller']
position: [0.6157172535185595]
velocity: [-0.49508009905876765]
effort: [0.0]
---
header: 
  seq: 1309
  stamp: 
    secs: 1383345712
    nsecs: 451980026
  frame_id: ''
name: ['mockarm_controller']
position: [0.6106208921027361]
velocity: [-0.502798087591109]
effort: [0.0]
---
header: 
  seq: 1310
  stamp: 
    secs: 1383345712
    nsecs: 461980129
  frame_id: ''
name: ['mockarm_controller']
position: [0.6055419839794326]
velocity: [-0.5012739955885779]
effort: [0.0]
---
header: 
  seq: 1311
  stamp: 
    secs: 1383345712
    nsecs: 471917431
  frame_id: ''
name: ['mockarm_controller']
position: [0.6005503423187288]
velocity: [-0.5045629900640616]
effort: [0.0]
---
header: 
  seq: 1312
  stamp: 
    secs: 1383345712
    nsecs: 481975964
  frame_id: ''
name: ['mockarm_controller']
position: [0.595593607243065]
velocity: [-0.47808015776078844]
effort: [0.0]
---
header: 
  seq: 1313
  stamp: 
    secs: 1383345712
    nsecs: 491980797
  frame_id: ''
name: ['mockarm_controller']
position: [0.5906019655823611]
velocity: [-0.49193275457808927]
effort: [0.0]
---
header: 
  seq: 1314
  stamp: 
    secs: 1383345712
    nsecs: 501979759
  frame_id: ''
name: ['mockarm_controller']
position: [0.5855928706291375]
velocity: [-0.49389616971244904]
effort: [0.0]
---
header: 
  seq: 1315
  stamp: 
    secs: 1383345712
    nsecs: 511978707
  frame_id: ''
name: ['mockarm_controller']
position: [0.5806361355534735]
velocity: [-0.48892632429117827]
effort: [0.0]
---
header: 
  seq: 1316
  stamp: 
    secs: 1383345712
    nsecs: 521977092
  frame_id: ''
name: ['mockarm_controller']
position: [0.5755397741376501]
velocity: [-0.5022035293479867]
effort: [0.0]
---
header: 
  seq: 1317
  stamp: 
    secs: 1383345712
    nsecs: 531980281
  frame_id: ''
name: ['mockarm_controller']
position: [0.5704957725993864]
velocity: [-0.49494667238383633]
effort: [0.0]
---
header: 
  seq: 1318
  stamp: 
    secs: 1383345712
    nsecs: 541980042
  frame_id: ''
name: ['mockarm_controller']
position: [0.5654517710611229]
velocity: [-0.5098040770430124]
effort: [0.0]
---
header: 
  seq: 1319
  stamp: 
    secs: 1383345712
    nsecs: 551979044
  frame_id: ''
name: ['mockarm_controller']
position: [0.560495035985459]
velocity: [-0.47821853117837476]
effort: [0.0]
---
header: 
  seq: 1320
  stamp: 
    secs: 1383345712
    nsecs: 561980191
  frame_id: ''
name: ['mockarm_controller']
position: [0.5554510344471953]
velocity: [-0.49567625179477953]
effort: [0.0]
---
header: 
  seq: 1321
  stamp: 
    secs: 1383345712
    nsecs: 571979204
  frame_id: ''
name: ['mockarm_controller']
position: [0.5505641125416112]
velocity: [-0.4887899485481248]
effort: [0.0]
---
header: 
  seq: 1322
  stamp: 
    secs: 1383345712
    nsecs: 581976620
  frame_id: ''
name: ['mockarm_controller']
position: [0.5456248307584672]
velocity: [-0.48725281475228926]
effort: [0.0]
---
header: 
  seq: 1323
  stamp: 
    secs: 1383345712
    nsecs: 591978365
  frame_id: ''
name: ['mockarm_controller']
position: [0.5406506423902835]
velocity: [-0.49356899862906845]
effort: [0.0]
---
header: 
  seq: 1324
  stamp: 
    secs: 1383345712
    nsecs: 601978956
  frame_id: ''
name: ['mockarm_controller']
position: [0.5355717342669799]
velocity: [-0.500532977560223]
effort: [0.0]
---
header: 
  seq: 1325
  stamp: 
    secs: 1383345712
    nsecs: 611980204
  frame_id: ''
name: ['mockarm_controller']
position: [0.5305800926062761]
velocity: [-0.4961870438075309]
effort: [0.0]
---
header: 
  seq: 1326
  stamp: 
    secs: 1383345712
    nsecs: 621976570
  frame_id: ''
name: ['mockarm_controller']
position: [0.5255535443605325]
velocity: [-0.4964982463199988]
effort: [0.0]
---
header: 
  seq: 1327
  stamp: 
    secs: 1383345712
    nsecs: 631975467
  frame_id: ''
name: ['mockarm_controller']
position: [0.5205095428222689]
velocity: [-0.4958224258589959]
effort: [0.0]
---
header: 
  seq: 1328
  stamp: 
    secs: 1383345712
    nsecs: 641978653
  frame_id: ''
name: ['mockarm_controller']
position: [0.5154829945765252]
velocity: [-0.4968417757975356]
effort: [0.0]
---
header: 
  seq: 1329
  stamp: 
    secs: 1383345712
    nsecs: 651977647
  frame_id: ''
name: ['mockarm_controller']
position: [0.5105088062083414]
velocity: [-0.4893446500918705]
effort: [0.0]
---
header: 
  seq: 1330
  stamp: 
    secs: 1383345712
    nsecs: 661979083
  frame_id: ''
name: ['mockarm_controller']
position: [0.5055346178401575]
velocity: [-0.48973007464643725]
effort: [0.0]
---
header: 
  seq: 1331
  stamp: 
    secs: 1383345712
    nsecs: 671979380
  frame_id: ''
name: ['mockarm_controller']
position: [0.5005778827644937]
velocity: [-0.4917883793693674]
effort: [0.0]
---
header: 
  seq: 1332
  stamp: 
    secs: 1383345712
    nsecs: 681975801
  frame_id: ''
name: ['mockarm_controller']
position: [0.49555133451875]
velocity: [-0.4940096556013432]
effort: [0.0]
---
header: 
  seq: 1333
  stamp: 
    secs: 1383345712
    nsecs: 691979558
  frame_id: ''
name: ['mockarm_controller']
position: [0.4905596928580462]
velocity: [-0.494907957634723]
effort: [0.0]
---
header: 
  seq: 1334
  stamp: 
    secs: 1383345712
    nsecs: 701975573
  frame_id: ''
name: ['mockarm_controller']
position: [0.48549823802726266]
velocity: [-0.4990096451526687]
effort: [0.0]
---
header: 
  seq: 1335
  stamp: 
    secs: 1383345712
    nsecs: 711979793
  frame_id: ''
name: ['mockarm_controller']
position: [0.4804891430740389]
velocity: [-0.5030727079666335]
effort: [0.0]
---
header: 
  seq: 1336
  stamp: 
    secs: 1383345712
    nsecs: 721975625
  frame_id: ''
name: ['mockarm_controller']
position: [0.4754800481208152]
velocity: [-0.49492095180552453]
effort: [0.0]
---
header: 
  seq: 1337
  stamp: 
    secs: 1383345712
    nsecs: 731980014
  frame_id: ''
name: ['mockarm_controller']
position: [0.4705058597526314]
velocity: [-0.482322153416446]
effort: [0.0]
---
header: 
  seq: 1338
  stamp: 
    secs: 1383345712
    nsecs: 741976511
  frame_id: ''
name: ['mockarm_controller']
position: [0.46554912467696746]
velocity: [-0.48724418319708146]
effort: [0.0]
---
header: 
  seq: 1339
  stamp: 
    secs: 1383345712
    nsecs: 751979070
  frame_id: ''
name: ['mockarm_controller']
position: [0.4605749363087836]
velocity: [-0.48963366159896277]
effort: [0.0]
---
header: 
  seq: 1340
  stamp: 
    secs: 1383345712
    nsecs: 761975132
  frame_id: ''
name: ['mockarm_controller']
position: [0.45553093477052]
velocity: [-0.5007447173894193]
effort: [0.0]
---
header: 
  seq: 1341
  stamp: 
    secs: 1383345712
    nsecs: 771978977
  frame_id: ''
name: ['mockarm_controller']
position: [0.4505043865247763]
velocity: [-0.4932340541402872]
effort: [0.0]
---
header: 
  seq: 1342
  stamp: 
    secs: 1383345712
    nsecs: 781975623
  frame_id: ''
name: ['mockarm_controller']
position: [0.44547783827903265]
velocity: [-0.5080914025819941]
effort: [0.0]
---
header: 
  seq: 1343
  stamp: 
    secs: 1383345712
    nsecs: 791979437
  frame_id: ''
name: ['mockarm_controller']
position: [0.44050364991084884]
velocity: [-0.4919581018874302]
effort: [0.0]
---
header: 
  seq: 1344
  stamp: 
    secs: 1383345712
    nsecs: 801975079
  frame_id: ''
name: ['mockarm_controller']
position: [0.435512008250145]
velocity: [-0.4810293592275047]
effort: [0.0]
---
header: 
  seq: 1345
  stamp: 
    secs: 1383345712
    nsecs: 811979692
  frame_id: ''
name: ['mockarm_controller']
position: [0.43046800671188146]
velocity: [-0.49616383417898535]
effort: [0.0]
---
header: 
  seq: 1346
  stamp: 
    secs: 1383345712
    nsecs: 821975250
  frame_id: ''
name: ['mockarm_controller']
position: [0.42551127163621755]
velocity: [-0.4887334919802711]
effort: [0.0]
---
header: 
  seq: 1347
  stamp: 
    secs: 1383345712
    nsecs: 831920946
  frame_id: ''
name: ['mockarm_controller']
position: [0.4204672700979539]
velocity: [-0.49802542834356445]
effort: [0.0]
---
header: 
  seq: 1348
  stamp: 
    secs: 1383345712
    nsecs: 841975391
  frame_id: ''
name: ['mockarm_controller']
position: [0.41549308172977006]
velocity: [-0.501026225643016]
effort: [0.0]
---
header: 
  seq: 1349
  stamp: 
    secs: 1383345712
    nsecs: 851978434
  frame_id: ''
name: ['mockarm_controller']
position: [0.4105014400690663]
velocity: [-0.48293746717335145]
effort: [0.0]
---
header: 
  seq: 1350
  stamp: 
    secs: 1383345712
    nsecs: 861974874
  frame_id: ''
name: ['mockarm_controller']
position: [0.4054923451158426]
velocity: [-0.5052037270018874]
effort: [0.0]
---
header: 
  seq: 1351
  stamp: 
    secs: 1383345712
    nsecs: 871975058
  frame_id: ''
name: ['mockarm_controller']
position: [0.4004657968700989]
velocity: [-0.4856099165050399]
effort: [0.0]
---
header: 
  seq: 1352
  stamp: 
    secs: 1383345712
    nsecs: 881975179
  frame_id: ''
name: ['mockarm_controller']
position: [0.39543924862435526]
velocity: [-0.4965963491151618]
effort: [0.0]
---
header: 
  seq: 1353
  stamp: 
    secs: 1383345712
    nsecs: 891993801
  frame_id: ''
name: ['mockarm_controller']
position: [0.3904650602561714]
velocity: [-0.49030935122561486]
effort: [0.0]
---
header: 
  seq: 1354
  stamp: 
    secs: 1383345712
    nsecs: 901971979
  frame_id: ''
name: ['mockarm_controller']
position: [0.38552577847302744]
velocity: [-0.48614978180550755]
effort: [0.0]
---
header: 
  seq: 1355
  stamp: 
    secs: 1383345712
    nsecs: 911971591
  frame_id: ''
name: ['mockarm_controller']
position: [0.3804817769347638]
velocity: [-0.4970439040464743]
effort: [0.0]
---
header: 
  seq: 1356
  stamp: 
    secs: 1383345712
    nsecs: 921972250
  frame_id: ''
name: ['mockarm_controller']
position: [0.37549013527406006]
velocity: [-0.5025311246052312]
effort: [0.0]
---
header: 
  seq: 1357
  stamp: 
    secs: 1383345712
    nsecs: 931972655
  frame_id: ''
name: ['mockarm_controller']
position: [0.3729943144437082]
velocity: [-0.24086284793976842]
effort: [0.0]
---
header: 
  seq: 1358
  stamp: 
    secs: 1383345712
    nsecs: 942001044
  frame_id: ''
name: ['mockarm_controller']
position: [0.37432076467522385]
velocity: [0.13150096475817138]
effort: [0.0]
---
header: 
  seq: 1359
  stamp: 
    secs: 1383345712
    nsecs: 951908028
  frame_id: ''
name: ['mockarm_controller']
position: [0.37582174783193895]
velocity: [0.1480697599600569]
effort: [0.0]
---
header: 
  seq: 1360
  stamp: 
    secs: 1383345712
    nsecs: 961976398
  frame_id: ''
name: ['mockarm_controller']
position: [0.37582174783193895]
velocity: [0.1480697599600569]
effort: [0.0]
---
header: 
  seq: 1361
  stamp: 
    secs: 1383345712
    nsecs: 971973753
  frame_id: ''
name: ['mockarm_controller']
position: [0.3760311873421783]
velocity: [0.02057564694364169]
effort: [0.0]
---
header: 
  seq: 1362
  stamp: 
    secs: 1383345712
    nsecs: 981971811
  frame_id: ''
name: ['mockarm_controller']
position: [0.3759090142945387]
velocity: [-0.0120676657091626]
effort: [0.0]
---
header: 
  seq: 1363
  stamp: 
    secs: 1383345712
    nsecs: 991943251
  frame_id: ''
name: ['mockarm_controller']
position: [0.3759962807571384]
velocity: [0.00861635689175662]
effort: [0.0]
---
header: 
  seq: 1364
  stamp: 
    secs: 1383345713
    nsecs: 1911787
  frame_id: ''
name: ['mockarm_controller']
position: [0.3761010005122581]
velocity: [0.010347801889294898]
effort: [0.0]
---
header: 
  seq: 1365
  stamp: 
    secs: 1383345713
    nsecs: 11916399
  frame_id: ''
name: ['mockarm_controller']
position: [0.3761882669748578]
velocity: [0.008614655735410764]
effort: [0.0]
---
header: 
  seq: 1366
  stamp: 
    secs: 1383345713
    nsecs: 21923146
  frame_id: ''
name: ['mockarm_controller']
position: [0.3762406268524176]
velocity: [0.005180043288465021]
effort: [0.0]
---
header: 
  seq: 1367
  stamp: 
    secs: 1383345713
    nsecs: 31906639
  frame_id: ''
name: ['mockarm_controller']
position: [0.3762406268524176]
velocity: [0.0]
effort: [0.0]
---
header: 
  seq: 1368
  stamp: 
    secs: 1383345713
    nsecs: 41976776
  frame_id: ''
name: ['mockarm_controller']
position: [0.3762406268524176]
velocity: [0.0]
effort: [0.0]
---
header: 
  seq: 1369
  stamp: 
    secs: 1383345713
    nsecs: 51905981
  frame_id: ''
name: ['mockarm_controller']
position: [0.3762406268524176]
velocity: [0.0]
effort: [0.0]
---
header: 
  seq: 1370
  stamp: 
    secs: 1383345713
    nsecs: 61991495
  frame_id: ''
name: ['mockarm_controller']
position: [0.37622317355989765]
velocity: [-0.001737510454948065]
effort: [0.0]
---
header: 
  seq: 1371
  stamp: 
    secs: 1383345713
    nsecs: 71911333
  frame_id: ''
name: ['mockarm_controller']
position: [0.37622317355989765]
velocity: [0.0]
effort: [0.0]
---
header: 
  seq: 1372
  stamp: 
    secs: 1383345713
    nsecs: 81908837
  frame_id: ''
name: ['mockarm_controller']
position: [0.3762406268524176]
velocity: [0.001731821047822317]
effort: [0.0]
---
header: 
  seq: 1373
  stamp: 
    secs: 1383345713
    nsecs: 92006750
  frame_id: ''
name: ['mockarm_controller']
position: [0.37622317355989765]
velocity: [-0.001733196873878184]
effort: [0.0]
---
header: 
  seq: 1374
  stamp: 
    secs: 1383345713
    nsecs: 101976796
  frame_id: ''
name: ['mockarm_controller']
position: [0.3762406268524176]
velocity: [0.0017316492231325838]
effort: [0.0]
---
header: 
  seq: 1375
  stamp: 
    secs: 1383345713
    nsecs: 111976631
  frame_id: ''
name: ['mockarm_controller']
position: [0.3762406268524176]
velocity: [0.0]
effort: [0.0]
---
header: 
  seq: 1376
  stamp: 
    secs: 1383345713
    nsecs: 121975775
  frame_id: ''
name: ['mockarm_controller']
position: [0.37622317355989765]
velocity: [-0.00173061899057544]
effort: [0.0]
---
header: 
  seq: 1377
  stamp: 
    secs: 1383345713
    nsecs: 131978553
  frame_id: ''
name: ['mockarm_controller']
position: [0.37622317355989765]
velocity: [0.0]
effort: [0.0]
---
header: 
  seq: 1378
  stamp: 
    secs: 1383345713
    nsecs: 141978903
  frame_id: ''
name: ['mockarm_controller']
position: [0.37622317355989765]
velocity: [0.0]
effort: [0.0]
---
header: 
  seq: 1379
  stamp: 
    secs: 1383345713
    nsecs: 151978124
  frame_id: ''
name: ['mockarm_controller']
position: [0.37620572026737775]
velocity: [-0.00178112996427164]
effort: [0.0]
---
header: 
  seq: 1380
  stamp: 
    secs: 1383345713
    nsecs: 161979137
  frame_id: ''
name: ['mockarm_controller']
position: [0.37620572026737775]
velocity: [0.0]
effort: [0.0]
---
header: 
  seq: 1381
  stamp: 
    secs: 1383345713
    nsecs: 171978714
  frame_id: ''
name: ['mockarm_controller']
position: [0.37620572026737775]
velocity: [0.0]
effort: [0.0]
---
header: 
  seq: 1382
  stamp: 
    secs: 1383345713
    nsecs: 181976389
  frame_id: ''
name: ['mockarm_controller']
position: [0.37620572026737775]
velocity: [0.0]
effort: [0.0]
---
header: 
  seq: 1383
  stamp: 
    secs: 1383345713
    nsecs: 191979127
  frame_id: ''
name: ['mockarm_controller']
position: [0.37620572026737775]
velocity: [0.0]
effort: [0.0]
---
header: 
  seq: 1384
  stamp: 
    secs: 1383345713
    nsecs: 201977901
  frame_id: ''
name: ['mockarm_controller']
position: [0.37620572026737775]
velocity: [0.0]
effort: [0.0]
---
header: 
  seq: 1385
  stamp: 
    secs: 1383345713
    nsecs: 211972752
  frame_id: ''
name: ['mockarm_controller']
position: [0.37620572026737775]
velocity: [0.0]
effort: [0.0]
---
header: 
  seq: 1386
  stamp: 
    secs: 1383345713
    nsecs: 221979413
  frame_id: ''
name: ['mockarm_controller']
position: [0.3761882669748578]
velocity: [-0.0017037575673519438]
effort: [0.0]
---
header: 
  seq: 1387
  stamp: 
    secs: 1383345713
    nsecs: 231900409
  frame_id: ''
name: ['mockarm_controller']
position: [0.3761533603898179]
velocity: [-0.0034346733287323253]
effort: [0.0]
---
header: 
  seq: 1388
  stamp: 
    secs: 1383345713
    nsecs: 241981394
  frame_id: ''
name: ['mockarm_controller']
position: [0.37608354721973813]
velocity: [-0.006923849060771372]
effort: [0.0]
---
header: 
  seq: 1389
  stamp: 
    secs: 1383345713
    nsecs: 251980288
  frame_id: ''
name: ['mockarm_controller']
position: [0.3760311873421783]
velocity: [-0.005197010179638704]
effort: [0.0]
---
header: 
  seq: 1390
  stamp: 
    secs: 1383345713
    nsecs: 261979020
  frame_id: ''
name: ['mockarm_controller']
position: [0.3760311873421783]
velocity: [0.0]
effort: [0.0]
---
header: 
  seq: 1391
  stamp: 
    secs: 1383345713
    nsecs: 271979947
  frame_id: ''
name: ['mockarm_controller']
position: [0.3760311873421783]
velocity: [0.0]
effort: [0.0]
---
header: 
  seq: 1392
  stamp: 
    secs: 1383345713
    nsecs: 281935361
  frame_id: ''
name: ['mockarm_controller']
position: [0.3760311873421783]
velocity: [0.0]
effort: [0.0]
---
header: 
  seq: 1393
  stamp: 
    secs: 1383345713
    nsecs: 291977182
  frame_id: ''
name: ['mockarm_controller']
position: [0.3760311873421783]
velocity: [0.0]
effort: [0.0]
---
header: 
  seq: 1394
  stamp: 
    secs: 1383345713
    nsecs: 301976023
  frame_id: ''
name: ['mockarm_controller']
position: [0.3760137340496584]
velocity: [-0.0017392419053211562]
effort: [0.0]
---
header: 
  seq: 1395
  stamp: 
    secs: 1383345713
    nsecs: 311971763
  frame_id: ''
name: ['mockarm_controller']
position: [0.37597882746461847]
velocity: [-0.003428264097417661]
effort: [0.0]
---
header: 
  seq: 1396
  stamp: 
    secs: 1383345713
    nsecs: 321978054
  frame_id: ''
name: ['mockarm_controller']
position: [0.37594392087957856]
velocity: [-0.0034608948086363896]
effort: [0.0]
---
header: 
  seq: 1397
  stamp: 
    secs: 1383345713
    nsecs: 331978935
  frame_id: ''
name: ['mockarm_controller']
position: [0.3759090142945387]
velocity: [-0.0034302854795451175]
effort: [0.0]
---
header: 
  seq: 1398
  stamp: 
    secs: 1383345713
    nsecs: 341978129
  frame_id: ''
name: ['mockarm_controller']
position: [0.3759090142945387]
velocity: [0.0]
effort: [0.0]
---
header: 
  seq: 1399
  stamp: 
    secs: 1383345713
    nsecs: 351979563
  frame_id: ''
name: ['mockarm_controller']
position: [0.37589156100201876]
velocity: [-0.0017214017674280812]
effort: [0.0]
---
header: 
  seq: 1400
  stamp: 
    secs: 1383345713
    nsecs: 361978303
  frame_id: ''
name: ['mockarm_controller']
position: [0.37589156100201876]
velocity: [0.0]
effort: [0.0]
---
header: 
  seq: 1401
  stamp: 
    secs: 1383345713
    nsecs: 371979480
  frame_id: ''
name: ['mockarm_controller']
position: [0.37589156100201876]
velocity: [0.0]
effort: [0.0]
---
header: 
  seq: 1402
  stamp: 
    secs: 1383345713
    nsecs: 381975748
  frame_id: ''
name: ['mockarm_controller']
position: [0.37589156100201876]
velocity: [0.0]
effort: [0.0]
---
header: 
  seq: 1403
  stamp: 
    secs: 1383345713
    nsecs: 391979453
  frame_id: ''
name: ['mockarm_controller']
position: [0.37589156100201876]
velocity: [0.0]
effort: [0.0]
---
header: 
  seq: 1404
  stamp: 
    secs: 1383345713
    nsecs: 401978162
  frame_id: ''
name: ['mockarm_controller']
position: [0.3758741077094988]
velocity: [-0.0016835432159692594]
effort: [0.0]
---
header: 
  seq: 1405
  stamp: 
    secs: 1383345713
    nsecs: 411973945
  frame_id: ''
name: ['mockarm_controller']
position: [0.3758741077094988]
velocity: [0.0]
effort: [0.0]
---
header: 
  seq: 1406
  stamp: 
    secs: 1383345713
    nsecs: 421978751
  frame_id: ''
name: ['mockarm_controller']
position: [0.37585665441697885]
velocity: [-0.001715479901705653]
effort: [0.0]
---
header: 
  seq: 1407
  stamp: 
    secs: 1383345713
    nsecs: 431975673
  frame_id: ''
name: ['mockarm_controller']
position: [0.37585665441697885]
velocity: [0.0]
effort: [0.0]
---
header: 
  seq: 1408
  stamp: 
    secs: 1383345713
    nsecs: 441980188
  frame_id: ''
name: ['mockarm_controller']
position: [0.37585665441697885]
velocity: [0.0]
effort: [0.0]
---
header: 
  seq: 1409
  stamp: 
    secs: 1383345713
    nsecs: 451979271
  frame_id: ''
name: ['mockarm_controller']
position: [0.37585665441697885]
velocity: [0.0]
effort: [0.0]
---
header: 
  seq: 1410
  stamp: 
    secs: 1383345713
    nsecs: 461979001
  frame_id: ''
name: ['mockarm_controller']
position: [0.37585665441697885]
velocity: [0.0]
effort: [0.0]
---
header: 
  seq: 1411
  stamp: 
    secs: 1383345713
    nsecs: 471979097
  frame_id: ''
name: ['mockarm_controller']
position: [0.37585665441697885]
velocity: [0.0]
effort: [0.0]
---
header: 
  seq: 1412
  stamp: 
    secs: 1383345713
    nsecs: 481975808
  frame_id: ''
name: ['mockarm_controller']
position: [0.37585665441697885]
velocity: [0.0]
effort: [0.0]
---
header: 
  seq: 1413
  stamp: 
    secs: 1383345713
    nsecs: 491979001
  frame_id: ''
name: ['mockarm_controller']
position: [0.37585665441697885]
velocity: [0.0]
effort: [0.0]
---
header: 
  seq: 1414
  stamp: 
    secs: 1383345713
    nsecs: 501978588
  frame_id: ''
name: ['mockarm_controller']
position: [0.37585665441697885]
velocity: [0.0]
effort: [0.0]
---
header: 
  seq: 1415
  stamp: 
    secs: 1383345713
    nsecs: 511980534
  frame_id: ''
name: ['mockarm_controller']
position: [0.37585665441697885]
velocity: [0.0]
effort: [0.0]
---
header: 
  seq: 1416
  stamp: 
    secs: 1383345713
    nsecs: 521978290
  frame_id: ''
name: ['mockarm_controller']
position: [0.37585665441697885]
velocity: [0.0]
effort: [0.0]
---
header: 
  seq: 1417
  stamp: 
    secs: 1383345713
    nsecs: 531979327
  frame_id: ''
name: ['mockarm_controller']
position: [0.37585665441697885]
velocity: [0.0]
effort: [0.0]
---
header: 
  seq: 1418
  stamp: 
    secs: 1383345713
    nsecs: 541979514
  frame_id: ''
name: ['mockarm_controller']
position: [0.37585665441697885]
velocity: [0.0]
effort: [0.0]
---
header: 
  seq: 1419
  stamp: 
    secs: 1383345713
    nsecs: 551979476
  frame_id: ''
name: ['mockarm_controller']
position: [0.37585665441697885]
velocity: [0.0]
effort: [0.0]
---
header: 
  seq: 1420
  stamp: 
    secs: 1383345713
    nsecs: 561976724
  frame_id: ''
name: ['mockarm_controller']
position: [0.37585665441697885]
velocity: [0.0]
effort: [0.0]
---
header: 
  seq: 1421
  stamp: 
    secs: 1383345713
    nsecs: 571979643
  frame_id: ''
name: ['mockarm_controller']
position: [0.37585665441697885]
velocity: [0.0]
effort: [0.0]
---
header: 
  seq: 1422
  stamp: 
    secs: 1383345713
    nsecs: 581992158
  frame_id: ''
name: ['mockarm_controller']
position: [0.37585665441697885]
velocity: [0.0]
effort: [0.0]
---
header: 
  seq: 1423
  stamp: 
    secs: 1383345713
    nsecs: 591979738
  frame_id: ''
name: ['mockarm_controller']
position: [0.37585665441697885]
velocity: [0.0]
effort: [0.0]
---
header: 
  seq: 1424
  stamp: 
    secs: 1383345713
    nsecs: 601974967
  frame_id: ''
name: ['mockarm_controller']
position: [0.37585665441697885]
velocity: [0.0]
effort: [0.0]
---
header: 
  seq: 1425
  stamp: 
    secs: 1383345713
    nsecs: 611979029
  frame_id: ''
name: ['mockarm_controller']
position: [0.37585665441697885]
velocity: [0.0]
effort: [0.0]
---
header: 
  seq: 1426
  stamp: 
    secs: 1383345713
    nsecs: 621976284
  frame_id: ''
name: ['mockarm_controller']
position: [0.37585665441697885]
velocity: [0.0]
effort: [0.0]
---
header: 
  seq: 1427
  stamp: 
    secs: 1383345713
    nsecs: 631973219
  frame_id: ''
name: ['mockarm_controller']
position: [0.37585665441697885]
velocity: [0.0]
effort: [0.0]
---
header: 
  seq: 1428
  stamp: 
    secs: 1383345713
    nsecs: 641977292
  frame_id: ''
name: ['mockarm_controller']
position: [0.37585665441697885]
velocity: [0.0]
effort: [0.0]
---
header: 
  seq: 1429
  stamp: 
    secs: 1383345713
    nsecs: 651978732
  frame_id: ''
name: ['mockarm_controller']
position: [0.37585665441697885]
velocity: [0.0]
effort: [0.0]
---
header: 
  seq: 1430
  stamp: 
    secs: 1383345713
    nsecs: 661975314
  frame_id: ''
name: ['mockarm_controller']
position: [0.37585665441697885]
velocity: [0.0]
effort: [0.0]
---
header: 
  seq: 1431
  stamp: 
    secs: 1383345713
    nsecs: 671978001
  frame_id: ''
name: ['mockarm_controller']
position: [0.37585665441697885]
velocity: [0.0]
effort: [0.0]
---
header: 
  seq: 1432
  stamp: 
    secs: 1383345713
    nsecs: 681975220
  frame_id: ''
name: ['mockarm_controller']
position: [0.37585665441697885]
velocity: [0.0]
effort: [0.0]
---
header: 
  seq: 1433
  stamp: 
    secs: 1383345713
    nsecs: 691974680
  frame_id: ''
name: ['mockarm_controller']
position: [0.37585665441697885]
velocity: [0.0]
effort: [0.0]
---
header: 
  seq: 1434
  stamp: 
    secs: 1383345713
    nsecs: 701975412
  frame_id: ''
name: ['mockarm_controller']
position: [0.37585665441697885]
velocity: [0.0]
effort: [0.0]
---
header: 
  seq: 1435
  stamp: 
    secs: 1383345713
    nsecs: 711976732
  frame_id: ''
name: ['mockarm_controller']
position: [0.37585665441697885]
velocity: [0.0]
effort: [0.0]
---
header: 
  seq: 1436
  stamp: 
    secs: 1383345713
    nsecs: 721974789
  frame_id: ''
name: ['mockarm_controller']
position: [0.37585665441697885]
velocity: [0.0]
effort: [0.0]
---
header: 
  seq: 1437
  stamp: 
    secs: 1383345713
    nsecs: 731975262
  frame_id: ''
name: ['mockarm_controller']
position: [0.37585665441697885]
velocity: [0.0]
effort: [0.0]
---
header: 
  seq: 1438
  stamp: 
    secs: 1383345713
    nsecs: 741925213
  frame_id: ''
name: ['mockarm_controller']
position: [0.37585665441697885]
velocity: [0.0]
effort: [0.0]
---
header: 
  seq: 1439
  stamp: 
    secs: 1383345713
    nsecs: 751914930
  frame_id: ''
name: ['mockarm_controller']
position: [0.3758392011244589]
velocity: [-0.0017097661167665861]
effort: [0.0]
---
header: 
  seq: 1440
  stamp: 
    secs: 1383345713
    nsecs: 761913964
  frame_id: ''
name: ['mockarm_controller']
position: [0.3758392011244589]
velocity: [0.0]
effort: [0.0]
---
header: 
  seq: 1441
  stamp: 
    secs: 1383345713
    nsecs: 771980503
  frame_id: ''
name: ['mockarm_controller']
position: [0.3758392011244589]
velocity: [0.0]
effort: [0.0]
---
header: 
  seq: 1442
  stamp: 
    secs: 1383345713
    nsecs: 781907965
  frame_id: ''
name: ['mockarm_controller']
position: [0.3758392011244589]
velocity: [0.0]
effort: [0.0]
---
header: 
  seq: 1443
  stamp: 
    secs: 1383345713
    nsecs: 791906102
  frame_id: ''
name: ['mockarm_controller']
position: [0.3758392011244589]
velocity: [0.0]
effort: [0.0]
---
header: 
  seq: 1444
  stamp: 
    secs: 1383345713
    nsecs: 801908421
  frame_id: ''
name: ['mockarm_controller']
position: [0.3758392011244589]
velocity: [0.0]
effort: [0.0]
---
header: 
  seq: 1445
  stamp: 
    secs: 1383345713
    nsecs: 811914159
  frame_id: ''
name: ['mockarm_controller']
position: [0.3758392011244589]
velocity: [0.0]
effort: [0.0]
---
header: 
  seq: 1446
  stamp: 
    secs: 1383345713
    nsecs: 821911760
  frame_id: ''
name: ['mockarm_controller']
position: [0.3758392011244589]
velocity: [0.0]
effort: [0.0]
---
header: 
  seq: 1447
  stamp: 
    secs: 1383345713
    nsecs: 831912566
  frame_id: ''
name: ['mockarm_controller']
position: [0.3758392011244589]
velocity: [0.0]
effort: [0.0]
---
header: 
  seq: 1448
  stamp: 
    secs: 1383345713
    nsecs: 841905863
  frame_id: ''
name: ['mockarm_controller']
position: [0.3758392011244589]
velocity: [0.0]
effort: [0.0]
---
header: 
  seq: 1449
  stamp: 
    secs: 1383345713
    nsecs: 851908918
  frame_id: ''
name: ['mockarm_controller']
position: [0.3758392011244589]
velocity: [0.0]
effort: [0.0]
---
header: 
  seq: 1450
  stamp: 
    secs: 1383345713
    nsecs: 861904300
  frame_id: ''
name: ['mockarm_controller']
position: [0.3758392011244589]
velocity: [0.0]
effort: [0.0]
---
header: 
  seq: 1451
  stamp: 
    secs: 1383345713
    nsecs: 871904550
  frame_id: ''
name: ['mockarm_controller']
position: [0.3758392011244589]
velocity: [0.0]
effort: [0.0]
---
header: 
  seq: 1452
  stamp: 
    secs: 1383345713
    nsecs: 881943594
  frame_id: ''
name: ['mockarm_controller']
position: [0.3758392011244589]
velocity: [0.0]
effort: [0.0]
---
header: 
  seq: 1453
  stamp: 
    secs: 1383345713
    nsecs: 891980332
  frame_id: ''
name: ['mockarm_controller']
position: [0.3758392011244589]
velocity: [0.0]
effort: [0.0]
---
header: 
  seq: 1454
  stamp: 
    secs: 1383345713
    nsecs: 901980936
  frame_id: ''
name: ['mockarm_controller']
position: [0.3758392011244589]
velocity: [0.0]
effort: [0.0]
---
header: 
  seq: 1455
  stamp: 
    secs: 1383345713
    nsecs: 911976210
