header: 
  seq: 6642
  stamp: 
    secs: 1383345368
    nsecs: 528629223
  frame_id: ''
name: ['mockarm_controller']
position: [0.09159487914466241]
velocity: [0.0]
effort: [0.0]
---
header: 
  seq: 6643
  stamp: 
    secs: 1383345368
    nsecs: 538687791
  frame_id: ''
name: ['mockarm_controller']
position: [0.09159487914466241]
velocity: [0.0]
effort: [0.0]
---
header: 
  seq: 6644
  stamp: 
    secs: 1383345368
    nsecs: 548645818
  frame_id: ''
name: ['mockarm_controller']
position: [0.09159487914466241]
velocity: [0.0]
effort: [0.0]
---
header: 
  seq: 6645
  stamp: 
    secs: 1383345368
    nsecs: 558635589
  frame_id: ''
name: ['mockarm_controller']
position: [0.09159487914466241]
velocity: [0.0]
effort: [0.0]
---
header: 
  seq: 6646
  stamp: 
    secs: 1383345368
    nsecs: 568629929
  frame_id: ''
name: ['mockarm_controller']
position: [0.09159487914466241]
velocity: [0.0]
effort: [0.0]
---
header: 
  seq: 6647
  stamp: 
    secs: 1383345368
    nsecs: 578628569
  frame_id: ''
name: ['mockarm_controller']
position: [0.09159487914466241]
velocity: [0.0]
effort: [0.0]
---
header: 
  seq: 6648
  stamp: 
    secs: 1383345368
    nsecs: 588626943
  frame_id: ''
name: ['mockarm_controller']
position: [0.09159487914466241]
velocity: [0.0]
effort: [0.0]
---
header: 
  seq: 6649
  stamp: 
    secs: 1383345368
    nsecs: 598689967
  frame_id: ''
name: ['mockarm_controller']
position: [0.09159487914466241]
velocity: [0.0]
effort: [0.0]
---
header: 
  seq: 6650
  stamp: 
    secs: 1383345368
    nsecs: 608692447
  frame_id: ''
name: ['mockarm_controller']
position: [0.09159487914466241]
velocity: [0.0]
effort: [0.0]
---
header: 
  seq: 6651
  stamp: 
    secs: 1383345368
    nsecs: 618689314
  frame_id: ''
name: ['mockarm_controller']
position: [0.09159487914466241]
velocity: [0.0]
effort: [0.0]
---
header: 
  seq: 6652
  stamp: 
    secs: 1383345368
    nsecs: 628696367
  frame_id: ''
name: ['mockarm_controller']
position: [0.09159487914466241]
velocity: [0.0]
effort: [0.0]
---
header: 
  seq: 6653
  stamp: 
    secs: 1383345368
    nsecs: 638693736
  frame_id: ''
name: ['mockarm_controller']
position: [0.09159487914466241]
velocity: [0.0]
effort: [0.0]
---
header: 
  seq: 6654
  stamp: 
    secs: 1383345368
    nsecs: 648695925
  frame_id: ''
name: ['mockarm_controller']
position: [0.09159487914466241]
velocity: [0.0]
effort: [0.0]
---
header: 
  seq: 6655
  stamp: 
    secs: 1383345368
    nsecs: 658691773
  frame_id: ''
name: ['mockarm_controller']
position: [0.09159487914466241]
velocity: [0.0]
effort: [0.0]
---
header: 
  seq: 6656
  stamp: 
    secs: 1383345368
    nsecs: 668696389
  frame_id: ''
name: ['mockarm_controller']
position: [0.09159487914466241]
velocity: [0.0]
effort: [0.0]
---
header: 
  seq: 6657
  stamp: 
    secs: 1383345368
    nsecs: 678694259
  frame_id: ''
name: ['mockarm_controller']
position: [0.09159487914466241]
velocity: [0.0]
effort: [0.0]
---
header: 
  seq: 6658
  stamp: 
    secs: 1383345368
    nsecs: 688696985
  frame_id: ''
name: ['mockarm_controller']
position: [0.09159487914466241]
velocity: [0.0]
effort: [0.0]
---
header: 
  seq: 6659
  stamp: 
    secs: 1383345368
    nsecs: 698695229
  frame_id: ''
name: ['mockarm_controller']
position: [0.09388126046477499]
velocity: [0.22653139008348155]
effort: [0.0]
---
header: 
  seq: 6660
  stamp: 
    secs: 1383345368
    nsecs: 708693890
  frame_id: ''
name: ['mockarm_controller']
position: [0.1000946326018748]
velocity: [0.6181229742439129]
effort: [0.0]
---
header: 
  seq: 6661
  stamp: 
    secs: 1383345368
    nsecs: 718708714
  frame_id: ''
name: ['mockarm_controller']
position: [0.10697122985473245]
velocity: [0.6815935427552434]
effort: [0.0]
---
header: 
  seq: 6662
  stamp: 
    secs: 1383345368
    nsecs: 728692970
  frame_id: ''
name: ['mockarm_controller']
position: [0.11236429724339493]
velocity: [0.5353451845009409]
effort: [0.0]
---
header: 
  seq: 6663
  stamp: 
    secs: 1383345368
    nsecs: 738693634
  frame_id: ''
name: ['mockarm_controller']
position: [0.11712904610133945]
velocity: [0.4748603605685191]
effort: [0.0]
---
header: 
  seq: 6664
  stamp: 
    secs: 1383345368
    nsecs: 748695664
  frame_id: ''
name: ['mockarm_controller']
position: [0.12201596800692358]
velocity: [0.4827066283666658]
effort: [0.0]
---
header: 
  seq: 6665
  stamp: 
    secs: 1383345368
    nsecs: 758692483
  frame_id: ''
name: ['mockarm_controller']
position: [0.12711232942274703]
velocity: [0.5021045729875323]
effort: [0.0]
---
header: 
  seq: 6666
  stamp: 
    secs: 1383345368
    nsecs: 768693366
  frame_id: ''
name: ['mockarm_controller']
position: [0.13220869083857045]
velocity: [0.5044903401131879]
effort: [0.0]
---
header: 
  seq: 6667
  stamp: 
    secs: 1383345368
    nsecs: 778692724
  frame_id: ''
name: ['mockarm_controller']
position: [0.1371479726217144]
velocity: [0.4862933723682147]
effort: [0.0]
---
header: 
  seq: 6668
  stamp: 
    secs: 1383345368
    nsecs: 788635871
  frame_id: ''
name: ['mockarm_controller']
position: [0.14210470769737832]
velocity: [0.4884926653852281]
effort: [0.0]
---
header: 
  seq: 6669
  stamp: 
    secs: 1383345368
    nsecs: 798696535
  frame_id: ''
name: ['mockarm_controller']
position: [0.1470614427730422]
velocity: [0.4912035552139413]
effort: [0.0]
---
header: 
  seq: 6670
  stamp: 
    secs: 1383345368
    nsecs: 808694545
  frame_id: ''
name: ['mockarm_controller']
position: [0.15215780418886565]
velocity: [0.5010678808203178]
effort: [0.0]
---
header: 
  seq: 6671
  stamp: 
    secs: 1383345368
    nsecs: 818690654
  frame_id: ''
name: ['mockarm_controller']
position: [0.15720180572712925]
velocity: [0.497485110786428]
effort: [0.0]
---
header: 
  seq: 6672
  stamp: 
    secs: 1383345368
    nsecs: 828696914
  frame_id: ''
name: ['mockarm_controller']
position: [0.16219344738783303]
velocity: [0.4909650497397255]
effort: [0.0]
---
header: 
  seq: 6673
  stamp: 
    secs: 1383345368
    nsecs: 838695961
  frame_id: ''
name: ['mockarm_controller']
position: [0.16715018246349694]
velocity: [0.4891675787687664]
effort: [0.0]
---
header: 
  seq: 6674
  stamp: 
    secs: 1383345368
    nsecs: 848695879
  frame_id: ''
name: ['mockarm_controller']
position: [0.17212437083168078]
velocity: [0.487904695260798]
effort: [0.0]
---
header: 
  seq: 6675
  stamp: 
    secs: 1383345368
    nsecs: 858693158
  frame_id: ''
name: ['mockarm_controller']
position: [0.17708110590734466]
velocity: [0.48945739860411597]
effort: [0.0]
---
header: 
  seq: 6676
  stamp: 
    secs: 1383345368
    nsecs: 868692987
  frame_id: ''
name: ['mockarm_controller']
position: [0.18202038769048862]
velocity: [0.4873489672564338]
effort: [0.0]
---
header: 
  seq: 6677
  stamp: 
    secs: 1383345368
    nsecs: 878694610
  frame_id: ''
name: ['mockarm_controller']
position: [0.18702948264371236]
velocity: [0.49258481199958126]
effort: [0.0]
---
header: 
  seq: 6678
  stamp: 
    secs: 1383345368
    nsecs: 888696537
  frame_id: ''
name: ['mockarm_controller']
position: [0.1920909374744959]
velocity: [0.5002426201604612]
effort: [0.0]
---
header: 
  seq: 6679
  stamp: 
    secs: 1383345368
    nsecs: 898695436
  frame_id: ''
name: ['mockarm_controller']
position: [0.19710003242771962]
velocity: [0.4932639047980024]
effort: [0.0]
---
header: 
  seq: 6680
  stamp: 
    secs: 1383345368
    nsecs: 908695957
  frame_id: ''
name: ['mockarm_controller']
position: [0.20207422079590348]
velocity: [0.4939611090550013]
effort: [0.0]
---
header: 
  seq: 6681
  stamp: 
    secs: 1383345368
    nsecs: 918694110
  frame_id: ''
name: ['mockarm_controller']
position: [0.20704840916408732]
velocity: [0.48747435987689486]
effort: [0.0]
---
header: 
  seq: 6682
  stamp: 
    secs: 1383345368
    nsecs: 928696016
  frame_id: ''
name: ['mockarm_controller']
position: [0.2120051442397512]
velocity: [0.4890710484128152]
effort: [0.0]
---
header: 
  seq: 6683
  stamp: 
    secs: 1383345368
    nsecs: 938694620
  frame_id: ''
name: ['mockarm_controller']
position: [0.21690951943785527]
velocity: [0.4851493914436717]
effort: [0.0]
---
header: 
  seq: 6684
  stamp: 
    secs: 1383345368
    nsecs: 948697572
  frame_id: ''
name: ['mockarm_controller']
position: [0.2219535209761189]
velocity: [0.498172991433444]
effort: [0.0]
---
header: 
  seq: 6685
  stamp: 
    secs: 1383345368
    nsecs: 958693801
  frame_id: ''
name: ['mockarm_controller']
position: [0.22698006922186256]
velocity: [0.4934277260963647]
effort: [0.0]
---
header: 
  seq: 6686
  stamp: 
    secs: 1383345368
    nsecs: 968695923
  frame_id: ''
name: ['mockarm_controller']
position: [0.23202407076012616]
velocity: [0.4970928883673591]
effort: [0.0]
---
header: 
  seq: 6687
  stamp: 
    secs: 1383345368
    nsecs: 978690485
  frame_id: ''
name: ['mockarm_controller']
position: [0.2370331657133499]
velocity: [0.49423729188196763]
effort: [0.0]
---
header: 
  seq: 6688
  stamp: 
    secs: 1383345368
    nsecs: 988696838
  frame_id: ''
name: ['mockarm_controller']
position: [0.24197244749649385]
velocity: [0.4895224760301245]
effort: [0.0]
---
header: 
  seq: 6689
  stamp: 
    secs: 1383345368
    nsecs: 998691700
  frame_id: ''
name: ['mockarm_controller']
position: [0.2469466358646777]
velocity: [0.4892483887266485]
effort: [0.0]
---
header: 
  seq: 6690
  stamp: 
    secs: 1383345369
    nsecs: 8696588
  frame_id: ''
name: ['mockarm_controller']
position: [0.25188591764782164]
velocity: [0.48961952648135965]
effort: [0.0]
---
header: 
  seq: 6691
  stamp: 
    secs: 1383345369
    nsecs: 18698502
  frame_id: ''
name: ['mockarm_controller']
position: [0.25694737247860516]
velocity: [0.49524998344261434]
effort: [0.0]
---
header: 
  seq: 6692
  stamp: 
    secs: 1383345369
    nsecs: 28695510
  frame_id: ''
name: ['mockarm_controller']
position: [0.261939014139309]
velocity: [0.4953991326621493]
effort: [0.0]
---
header: 
  seq: 6693
  stamp: 
    secs: 1383345369
    nsecs: 38692420
  frame_id: ''
name: ['mockarm_controller']
position: [0.26696556238505265]
velocity: [0.49231618469575583]
effort: [0.0]
---
header: 
  seq: 6694
  stamp: 
    secs: 1383345369
    nsecs: 48691620
  frame_id: ''
name: ['mockarm_controller']
position: [0.27200956392331627]
velocity: [0.49802542834356445]
effort: [0.0]
---
header: 
  seq: 6695
  stamp: 
    secs: 1383345369
    nsecs: 58692374
  frame_id: ''
name: ['mockarm_controller']
position: [0.27700120558402]
velocity: [0.49140004535378623]
effort: [0.0]
---
header: 
  seq: 6696
  stamp: 
    secs: 1383345369
    nsecs: 68693729
  frame_id: ''
name: ['mockarm_controller']
position: [0.28199284724472384]
velocity: [0.4922238103445239]
effort: [0.0]
---
header: 
  seq: 6697
  stamp: 
    secs: 1383345369
    nsecs: 78692528
  frame_id: ''
name: ['mockarm_controller']
position: [0.2868972224428279]
velocity: [0.48380933196251846]
effort: [0.0]
---
header: 
  seq: 6698
  stamp: 
    secs: 1383345369
    nsecs: 88696841
  frame_id: ''
name: ['mockarm_controller']
position: [0.2918714108110117]
velocity: [0.49069629754205457]
effort: [0.0]
---
header: 
  seq: 6699
  stamp: 
    secs: 1383345369
    nsecs: 98691454
  frame_id: ''
name: ['mockarm_controller']
position: [0.2969503189343152]
velocity: [0.5002371834239661]
effort: [0.0]
---
header: 
  seq: 6700
  stamp: 
    secs: 1383345369
    nsecs: 108694582
  frame_id: ''
name: ['mockarm_controller']
position: [0.30199432047257885]
velocity: [0.49679912718050045]
effort: [0.0]
---
header: 
  seq: 6701
  stamp: 
    secs: 1383345369
    nsecs: 118692618
  frame_id: ''
name: ['mockarm_controller']
position: [0.3069859621332826]
velocity: [0.49309904778264946]
effort: [0.0]
---
header: 
  seq: 6702
  stamp: 
    secs: 1383345369
    nsecs: 128696865
  frame_id: ''
name: ['mockarm_controller']
position: [0.3120474169640662]
velocity: [0.4993542650733597]
effort: [0.0]
---
header: 
  seq: 6703
  stamp: 
    secs: 1383345369
    nsecs: 138692512
  frame_id: ''
name: ['mockarm_controller']
position: [0.31703905862476994]
velocity: [0.49285561420850715]
effort: [0.0]
---
header: 
  seq: 6704
  stamp: 
    secs: 1383345369
    nsecs: 148691884
  frame_id: ''
name: ['mockarm_controller']
position: [0.32194343382287405]
velocity: [0.48299933012646296]
effort: [0.0]
---
header: 
  seq: 6705
  stamp: 
    secs: 1383345369
    nsecs: 158693644
  frame_id: ''
name: ['mockarm_controller']
position: [0.32688271560601795]
velocity: [0.48600627601534]
effort: [0.0]
---
header: 
  seq: 6706
  stamp: 
    secs: 1383345369
    nsecs: 168692625
  frame_id: ''
name: ['mockarm_controller']
position: [0.3318569039742018]
velocity: [0.4905995037167239]
effort: [0.0]
---
header: 
  seq: 6707
  stamp: 
    secs: 1383345369
    nsecs: 178693064
  frame_id: ''
name: ['mockarm_controller']
position: [0.33690090551246543]
velocity: [0.5005459500112752]
effort: [0.0]
---
header: 
  seq: 6708
  stamp: 
    secs: 1383345369
    nsecs: 188692748
  frame_id: ''
name: ['mockarm_controller']
position: [0.34194490705072905]
velocity: [0.4945584408533798]
effort: [0.0]
---
header: 
  seq: 6709
  stamp: 
    secs: 1383345369
    nsecs: 198692928
  frame_id: ''
name: ['mockarm_controller']
position: [0.3470238151740325]
velocity: [0.5009279143212814]
effort: [0.0]
---
header: 
  seq: 6710
  stamp: 
    secs: 1383345369
    nsecs: 208692610
  frame_id: ''
name: ['mockarm_controller']
position: [0.3520503634197762]
velocity: [0.49542166821837846]
effort: [0.0]
---
header: 
  seq: 6711
  stamp: 
    secs: 1383345369
    nsecs: 218693350
  frame_id: ''
name: ['mockarm_controller']
position: [0.35698964520292015]
velocity: [0.4881677982945203]
effort: [0.0]
---
header: 
  seq: 6712
  stamp: 
    secs: 1383345369
    nsecs: 228691302
  frame_id: ''
name: ['mockarm_controller']
position: [0.3618765671085043]
velocity: [0.4838536540182329]
effort: [0.0]
---
header: 
  seq: 6713
  stamp: 
    secs: 1383345369
    nsecs: 238625175
  frame_id: ''
name: ['mockarm_controller']
position: [0.3668507554766881]
velocity: [0.487331083392163]
effort: [0.0]
---
header: 
  seq: 6714
  stamp: 
    secs: 1383345369
    nsecs: 248625255
  frame_id: ''
name: ['mockarm_controller']
position: [0.3718423971373919]
velocity: [0.4950552078452659]
effort: [0.0]
---
header: 
  seq: 6715
  stamp: 
    secs: 1383345369
    nsecs: 258714682
  frame_id: ''
name: ['mockarm_controller']
position: [0.3768863986756555]
velocity: [0.4953355139215914]
effort: [0.0]
---
header: 
  seq: 6716
  stamp: 
    secs: 1383345369
    nsecs: 268633599
  frame_id: ''
name: ['mockarm_controller']
position: [0.381965306798959]
velocity: [0.49964664272538395]
effort: [0.0]
---
header: 
  seq: 6717
  stamp: 
    secs: 1383345369
    nsecs: 278695443
  frame_id: ''
name: ['mockarm_controller']
position: [0.3869918550447027]
velocity: [0.4985171323756488]
effort: [0.0]
---
header: 
  seq: 6718
  stamp: 
    secs: 1383345369
    nsecs: 288687872
  frame_id: ''
name: ['mockarm_controller']
position: [0.3920358565829663]
velocity: [0.49743604913842415]
effort: [0.0]
---
header: 
  seq: 6719
  stamp: 
    secs: 1383345369
    nsecs: 298697496
  frame_id: ''
name: ['mockarm_controller']
position: [0.3969925916586302]
velocity: [0.4875317277135743]
effort: [0.0]
---
header: 
  seq: 6720
  stamp: 
    secs: 1383345369
    nsecs: 308624747
  frame_id: ''
name: ['mockarm_controller']
position: [0.3969925916586302]
velocity: [0.4875317277135743]
effort: [0.0]
---
header: 
  seq: 6721
  stamp: 
    secs: 1383345369
    nsecs: 318624618
  frame_id: ''
name: ['mockarm_controller']
position: [0.40193187344177417]
velocity: [0.4872047527267663]
effort: [0.0]
---
header: 
  seq: 6722
  stamp: 
    secs: 1383345369
    nsecs: 328683973
  frame_id: ''
name: ['mockarm_controller']
position: [0.406888608517438]
velocity: [0.4921790364078894]
effort: [0.0]
---
header: 
  seq: 6723
  stamp: 
    secs: 1383345369
    nsecs: 338689163
  frame_id: ''
name: ['mockarm_controller']
position: [0.411827890300582]
velocity: [0.4861976359035295]
effort: [0.0]
---
header: 
  seq: 6724
  stamp: 
    secs: 1383345369
    nsecs: 348699995
  frame_id: ''
name: ['mockarm_controller']
position: [0.41692425171640546]
velocity: [0.501807937753395]
effort: [0.0]
---
header: 
  seq: 6725
  stamp: 
    secs: 1383345369
    nsecs: 358689131
  frame_id: ''
name: ['mockarm_controller']
position: [0.4219507999621491]
velocity: [0.49571481713448395]
effort: [0.0]
---
header: 
  seq: 6726
  stamp: 
    secs: 1383345369
    nsecs: 368625613
  frame_id: ''
name: ['mockarm_controller']
position: [0.4269948015004127]
velocity: [0.49832064199402937]
effort: [0.0]
---
header: 
  seq: 6727
  stamp: 
    secs: 1383345369
    nsecs: 378679624
  frame_id: ''
name: ['mockarm_controller']
position: [0.43196898986859655]
velocity: [0.492835466975514]
effort: [0.0]
---
header: 
  seq: 6728
  stamp: 
    secs: 1383345369
    nsecs: 388632886
  frame_id: ''
name: ['mockarm_controller']
position: [0.4369606315293003]
velocity: [0.491642042815302]
effort: [0.0]
---
header: 
  seq: 6729
  stamp: 
    secs: 1383345369
    nsecs: 398698984
  frame_id: ''
name: ['mockarm_controller']
position: [0.4418650067274044]
velocity: [0.4879975321496622]
effort: [0.0]
---
header: 
  seq: 6730
  stamp: 
    secs: 1383345369
    nsecs: 408696515
  frame_id: ''
name: ['mockarm_controller']
position: [0.44676938192550847]
velocity: [0.485149391443669]
effort: [0.0]
---
header: 
  seq: 6731
  stamp: 
    secs: 1383345369
    nsecs: 418697418
  frame_id: ''
name: ['mockarm_controller']
position: [0.4517086637086524]
velocity: [0.49161757570856535]
effort: [0.0]
---
header: 
  seq: 6732
  stamp: 
    secs: 1383345369
    nsecs: 428695330
  frame_id: ''
name: ['mockarm_controller']
position: [0.45675266524691605]
velocity: [0.5009436426917887]
effort: [0.0]
---
header: 
  seq: 6733
  stamp: 
    secs: 1383345369
    nsecs: 438692656
  frame_id: ''
name: ['mockarm_controller']
position: [0.46181412007769956]
velocity: [0.4995021050807775]
effort: [0.0]
---
header: 
  seq: 6734
  stamp: 
    secs: 1383345369
    nsecs: 448696160
  frame_id: ''
name: ['mockarm_controller']
position: [0.4668581216159632]
velocity: [0.501341967822644]
effort: [0.0]
---
header: 
  seq: 6735
  stamp: 
    secs: 1383345369
    nsecs: 458693180
  frame_id: ''
name: ['mockarm_controller']
position: [0.47183230998414705]
velocity: [0.49499336930877336]
effort: [0.0]
---
header: 
  seq: 6736
  stamp: 
    secs: 1383345369
    nsecs: 468693720
  frame_id: ''
name: ['mockarm_controller']
position: [0.476771591767291]
velocity: [0.4896680661389865]
effort: [0.0]
---
header: 
  seq: 6737
  stamp: 
    secs: 1383345369
    nsecs: 478694216
  frame_id: ''
name: ['mockarm_controller']
position: [0.4816585136728751]
velocity: [0.48553620522445073]
effort: [0.0]
---
header: 
  seq: 6738
  stamp: 
    secs: 1383345369
    nsecs: 488696516
  frame_id: ''
name: ['mockarm_controller']
position: [0.48659779545601906]
velocity: [0.49073837885185856]
effort: [0.0]
---
header: 
  seq: 6739
  stamp: 
    secs: 1383345369
    nsecs: 498692706
  frame_id: ''
name: ['mockarm_controller']
position: [0.49160689040924277]
velocity: [0.4950676965036286]
effort: [0.0]
---
header: 
  seq: 6740
  stamp: 
    secs: 1383345369
    nsecs: 508697345
  frame_id: ''
name: ['mockarm_controller']
position: [0.49670325182506625]
velocity: [0.5025997451502446]
effort: [0.0]
---
header: 
  seq: 6741
  stamp: 
    secs: 1383345369
    nsecs: 518633237
  frame_id: ''
name: ['mockarm_controller']
position: [0.5018170665334096]
velocity: [0.5063684234422594]
effort: [0.0]
---
header: 
  seq: 6742
  stamp: 
    secs: 1383345369
    nsecs: 528695963
  frame_id: ''
name: ['mockarm_controller']
position: [0.5068087081941134]
velocity: [0.49881499557347464]
effort: [0.0]
---
header: 
  seq: 6743
  stamp: 
    secs: 1383345369
    nsecs: 538694185
  frame_id: ''
name: ['mockarm_controller']
position: [0.5118178031473372]
velocity: [0.493847476409718]
effort: [0.0]
---
header: 
  seq: 6744
  stamp: 
    secs: 1383345369
    nsecs: 548696013
  frame_id: ''
name: ['mockarm_controller']
position: [0.5168094448080409]
velocity: [0.4880846446371136]
effort: [0.0]
---
header: 
  seq: 6745
  stamp: 
    secs: 1383345369
    nsecs: 558693647
  frame_id: ''
name: ['mockarm_controller']
position: [0.5217661798837048]
velocity: [0.4892641472375732]
effort: [0.0]
---
header: 
  seq: 6746
  stamp: 
    secs: 1383345369
    nsecs: 568693649
  frame_id: ''
name: ['mockarm_controller']
position: [0.5267229149593687]
velocity: [0.48858896753710845]
effort: [0.0]
---
header: 
  seq: 6747
  stamp: 
    secs: 1383345369
    nsecs: 578693866
  frame_id: ''
name: ['mockarm_controller']
position: [0.5317320099125924]
velocity: [0.49331248308288933]
effort: [0.0]
---
header: 
  seq: 6748
  stamp: 
    secs: 1383345369
    nsecs: 588696019
  frame_id: ''
name: ['mockarm_controller']
position: [0.536810918035896]
velocity: [0.5010267459113724]
effort: [0.0]
---
header: 
  seq: 6749
  stamp: 
    secs: 1383345369
    nsecs: 598695790
  frame_id: ''
name: ['mockarm_controller']
position: [0.5419421860367593]
velocity: [0.5065917663010442]
effort: [0.0]
---
header: 
  seq: 6750
  stamp: 
    secs: 1383345369
    nsecs: 608694184
  frame_id: ''
name: ['mockarm_controller']
position: [0.5469861875750228]
velocity: [0.5005956270606953]
effort: [0.0]
---
header: 
  seq: 6751
  stamp: 
    secs: 1383345369
    nsecs: 618693255
  frame_id: ''
name: ['mockarm_controller']
position: [0.5519778292357267]
velocity: [0.48794151131025143]
effort: [0.0]
---
header: 
  seq: 6752
  stamp: 
    secs: 1383345369
    nsecs: 628694857
  frame_id: ''
name: ['mockarm_controller']
position: [0.5568298445562709]
velocity: [0.482643521391052]
effort: [0.0]
---
header: 
  seq: 6753
  stamp: 
    secs: 1383345369
    nsecs: 638692863
  frame_id: ''
name: ['mockarm_controller']
position: [0.5618040329244547]
velocity: [0.4911808401484894]
effort: [0.0]
---
header: 
  seq: 6754
  stamp: 
    secs: 1383345369
    nsecs: 648696296
  frame_id: ''
name: ['mockarm_controller']
position: [0.5667607680001187]
velocity: [0.4880117235073314]
effort: [0.0]
---
header: 
  seq: 6755
  stamp: 
    secs: 1383345369
    nsecs: 658694470
  frame_id: ''
name: ['mockarm_controller']
position: [0.5717873162458623]
velocity: [0.4968417757975356]
effort: [0.0]
---
header: 
  seq: 6756
  stamp: 
    secs: 1383345369
    nsecs: 668692735
  frame_id: ''
name: ['mockarm_controller']
position: [0.5768313177841259]
velocity: [0.49930722018051527]
effort: [0.0]
---
header: 
  seq: 6757
  stamp: 
    secs: 1383345369
    nsecs: 678629126
  frame_id: ''
name: ['mockarm_controller']
position: [0.5819276791999494]
velocity: [0.5016597515329738]
effort: [0.0]
---
header: 
  seq: 6758
  stamp: 
    secs: 1383345369
    nsecs: 688694592
  frame_id: ''
name: ['mockarm_controller']
position: [0.5870065873232528]
velocity: [0.5015214894147795]
effort: [0.0]
---
header: 
  seq: 6759
  stamp: 
    secs: 1383345369
    nsecs: 698693489
  frame_id: ''
name: ['mockarm_controller']
position: [0.5919633223989167]
velocity: [0.4883001749250176]
effort: [0.0]
---
header: 
  seq: 6760
  stamp: 
    secs: 1383345369
    nsecs: 708697722
  frame_id: ''
name: ['mockarm_controller']
position: [0.5969200574745807]
velocity: [0.4879156487512516]
effort: [0.0]
---
header: 
  seq: 6761
  stamp: 
    secs: 1383345369
    nsecs: 718696968
  frame_id: ''
name: ['mockarm_controller']
position: [0.6018418859652046]
velocity: [0.48924736487315584]
effort: [0.0]
---
header: 
  seq: 6762
  stamp: 
    secs: 1383345369
    nsecs: 728697020
  frame_id: ''
name: ['mockarm_controller']
position: [0.6067637144558287]
velocity: [0.4836227267980798]
effort: [0.0]
---
header: 
  seq: 6763
  stamp: 
    secs: 1383345369
    nsecs: 738627984
  frame_id: ''
name: ['mockarm_controller']
position: [0.6117728094090524]
velocity: [0.49946105825344195]
effort: [0.0]
---
header: 
  seq: 6764
  stamp: 
    secs: 1383345369
    nsecs: 748695091
  frame_id: ''
name: ['mockarm_controller']
position: [0.6168691708248758]
velocity: [0.5019562115456879]
effort: [0.0]
---
header: 
  seq: 6765
  stamp: 
    secs: 1383345369
    nsecs: 758693634
  frame_id: ''
name: ['mockarm_controller']
position: [0.6219829855332192]
velocity: [0.5047689969739787]
effort: [0.0]
---
header: 
  seq: 6766
  stamp: 
    secs: 1383345369
    nsecs: 768693391
  frame_id: ''
name: ['mockarm_controller']
position: [0.626957173901403]
velocity: [0.4901161068266689]
effort: [0.0]
---
header: 
  seq: 6767
  stamp: 
    secs: 1383345369
    nsecs: 778697296
  frame_id: ''
name: ['mockarm_controller']
position: [0.6319313622695869]
velocity: [0.48862361180588043]
effort: [0.0]
---
header: 
  seq: 6768
  stamp: 
    secs: 1383345369
    nsecs: 788695517
  frame_id: ''
name: ['mockarm_controller']
position: [0.6368706440527309]
velocity: [0.49020263826359234]
effort: [0.0]
---
header: 
  seq: 6769
  stamp: 
    secs: 1383345369
    nsecs: 798696608
  frame_id: ''
name: ['mockarm_controller']
position: [0.6418099258358748]
velocity: [0.48763765259590847]
effort: [0.0]
---
header: 
  seq: 6770
  stamp: 
    secs: 1383345369
    nsecs: 808697707
  frame_id: ''
name: ['mockarm_controller']
position: [0.6468015674965786]
velocity: [0.49173890855125213]
effort: [0.0]
---
header: 
  seq: 6771
  stamp: 
    secs: 1383345369
    nsecs: 818694014
  frame_id: ''
name: ['mockarm_controller']
position: [0.6518106624498023]
velocity: [0.498268671364147]
effort: [0.0]
---
header: 
  seq: 6772
  stamp: 
    secs: 1383345369
    nsecs: 828697176
  frame_id: ''
name: ['mockarm_controller']
position: [0.6568895705731058]
velocity: [0.5002371834239606]
effort: [0.0]
---
header: 
  seq: 6773
  stamp: 
    secs: 1383345369
    nsecs: 838693977
  frame_id: ''
name: ['mockarm_controller']
position: [0.6619335721113694]
velocity: [0.49807460632601613]
effort: [0.0]
---
header: 
  seq: 6774
  stamp: 
    secs: 1383345369
    nsecs: 848695901
  frame_id: ''
name: ['mockarm_controller']
position: [0.666960120357113]
velocity: [0.4952752237406313]
effort: [0.0]
---
header: 
  seq: 6775
  stamp: 
    secs: 1383345369
    nsecs: 858693449
  frame_id: ''
name: ['mockarm_controller']
position: [0.6719517620178168]
velocity: [0.4933914856878285]
effort: [0.0]
---
header: 
  seq: 6776
  stamp: 
    secs: 1383345369
    nsecs: 868694469
  frame_id: ''
name: ['mockarm_controller']
position: [0.6769259503860007]
velocity: [0.48857561813022915]
effort: [0.0]
---
header: 
  seq: 6777
  stamp: 
    secs: 1383345369
    nsecs: 878692938
  frame_id: ''
name: ['mockarm_controller']
position: [0.6818303255841047]
velocity: [0.48673830866455436]
effort: [0.0]
---
header: 
  seq: 6778
  stamp: 
    secs: 1383345369
    nsecs: 888696090
  frame_id: ''
name: ['mockarm_controller']
position: [0.6867870606597687]
velocity: [0.48405615973280913]
effort: [0.0]
---
header: 
  seq: 6779
  stamp: 
    secs: 1383345369
    nsecs: 898692606
  frame_id: ''
name: ['mockarm_controller']
position: [0.6918834220755921]
velocity: [0.5023520370451818]
effort: [0.0]
---
header: 
  seq: 6780
  stamp: 
    secs: 1383345369
    nsecs: 908697738
  frame_id: ''
name: ['mockarm_controller']
position: [0.6969972367839354]
velocity: [0.5050681193425559]
effort: [0.0]
---
header: 
  seq: 6781
  stamp: 
    secs: 1383345369
    nsecs: 918693485
  frame_id: ''
name: ['mockarm_controller']
position: [0.7020237850296791]
velocity: [0.49522642815208545]
effort: [0.0]
---
header: 
  seq: 6782
  stamp: 
    secs: 1383345369
    nsecs: 928696291
  frame_id: ''
name: ['mockarm_controller']
position: [0.706997973397863]
velocity: [0.4895372865056454]
effort: [0.0]
---
header: 
  seq: 6783
  stamp: 
    secs: 1383345369
    nsecs: 938693394
  frame_id: ''
name: ['mockarm_controller']
position: [0.7119372551810069]
velocity: [0.4880230988186895]
effort: [0.0]
---
header: 
  seq: 6784
  stamp: 
    secs: 1383345369
    nsecs: 948693335
  frame_id: ''
name: ['mockarm_controller']
position: [0.7168765369641509]
velocity: [0.49005673014624035]
effort: [0.0]
---
header: 
  seq: 6785
  stamp: 
    secs: 1383345369
    nsecs: 958693012
  frame_id: ''
name: ['mockarm_controller']
position: [0.7218158187472948]
velocity: [0.4833429673298715]
effort: [0.0]
---
header: 
  seq: 6786
  stamp: 
    secs: 1383345369
    nsecs: 968689432
  frame_id: ''
name: ['mockarm_controller']
position: [0.7267551005304388]
velocity: [0.48986232104968325]
effort: [0.0]
---
header: 
  seq: 6787
  stamp: 
    secs: 1383345369
    nsecs: 978692952
  frame_id: ''
name: ['mockarm_controller']
position: [0.7318863685313022]
velocity: [0.5040043218606608]
effort: [0.0]
---
header: 
  seq: 6788
  stamp: 
    secs: 1383345369
    nsecs: 988689722
  frame_id: ''
name: ['mockarm_controller']
position: [0.7369652766546056]
velocity: [0.5034104592430838]
effort: [0.0]
---
header: 
  seq: 6789
  stamp: 
    secs: 1383345369
    nsecs: 998693012
  frame_id: ''
name: ['mockarm_controller']
position: [0.7420092781928692]
velocity: [0.49640798526361235]
effort: [0.0]
---
header: 
  seq: 6790
  stamp: 
    secs: 1383345370
    nsecs: 8693693
  frame_id: ''
name: ['mockarm_controller']
position: [0.747018373146093]
velocity: [0.49404230725158005]
effort: [0.0]
---
header: 
  seq: 6791
  stamp: 
    secs: 1383345370
    nsecs: 18708722
  frame_id: ''
name: ['mockarm_controller']
position: [0.7519751082217568]
velocity: [0.4863358590721992]
effort: [0.0]
---
header: 
  seq: 6792
  stamp: 
    secs: 1383345370
    nsecs: 28631262
  frame_id: ''
name: ['mockarm_controller']
position: [0.7568445768348211]
velocity: [0.48236439951107024]
effort: [0.0]
---
header: 
  seq: 6793
  stamp: 
    secs: 1383345370
    nsecs: 38626174
  frame_id: ''
name: ['mockarm_controller']
position: [0.761766405325445]
velocity: [0.4889557411706683]
effort: [0.0]
---
header: 
  seq: 6794
  stamp: 
    secs: 1383345370
    nsecs: 48699592
  frame_id: ''
name: ['mockarm_controller']
position: [0.7668278601562286]
velocity: [0.4934153666195724]
effort: [0.0]
---
header: 
  seq: 6795
  stamp: 
    secs: 1383345370
    nsecs: 58716905
  frame_id: ''
name: ['mockarm_controller']
position: [0.7719242215720521]
velocity: [0.5047901560839423]
effort: [0.0]
---
header: 
  seq: 6796
  stamp: 
    secs: 1383345370
    nsecs: 68641075
  frame_id: ''
name: ['mockarm_controller']
position: [0.7769507698177958]
velocity: [0.49561706228985086]
effort: [0.0]
---
header: 
  seq: 6797
  stamp: 
    secs: 1383345370
    nsecs: 78627761
  frame_id: ''
name: ['mockarm_controller']
position: [0.7819947713560593]
velocity: [0.4958224258589959]
effort: [0.0]
---
header: 
  seq: 6798
  stamp: 
    secs: 1383345370
    nsecs: 88624387
  frame_id: ''
name: ['mockarm_controller']
position: [0.7869689597242432]
velocity: [0.493863023052409]
effort: [0.0]
---
header: 
  seq: 6799
  stamp: 
    secs: 1383345370
    nsecs: 98635426
  frame_id: ''
name: ['mockarm_controller']
position: [0.7919955079699869]
velocity: [0.4945442980857603]
effort: [0.0]
---
header: 
  seq: 6800
  stamp: 
    secs: 1383345370
    nsecs: 108627177
  frame_id: ''
name: ['mockarm_controller']
position: [0.7968475232905311]
velocity: [0.4823556338149165]
effort: [0.0]
---
header: 
  seq: 6801
  stamp: 
    secs: 1383345370
    nsecs: 118625778
  frame_id: ''
name: ['mockarm_controller']
position: [0.8017868050736751]
velocity: [0.487733957059737]
effort: [0.0]
---
header: 
  seq: 6802
  stamp: 
    secs: 1383345370
    nsecs: 128632711
  frame_id: ''
name: ['mockarm_controller']
position: [0.8017868050736751]
velocity: [0.487733957059737]
effort: [0.0]
---
header: 
  seq: 6803
  stamp: 
    secs: 1383345370
    nsecs: 138699348
  frame_id: ''
name: ['mockarm_controller']
position: [0.8068657131969785]
velocity: [0.4979321689513208]
effort: [0.0]
---
header: 
  seq: 6804
  stamp: 
    secs: 1383345370
    nsecs: 148624181
  frame_id: ''
name: ['mockarm_controller']
position: [0.811962074612802]
velocity: [0.5025501839881157]
effort: [0.0]
---
header: 
  seq: 6805
  stamp: 
    secs: 1383345370
    nsecs: 158624303
  frame_id: ''
name: ['mockarm_controller']
position: [0.8170060761510656]
velocity: [0.4995544754148326]
effort: [0.0]
---
header: 
  seq: 6806
  stamp: 
    secs: 1383345370
    nsecs: 168627080
  frame_id: ''
name: ['mockarm_controller']
position: [0.8220151711042893]
velocity: [0.49345827536437487]
effort: [0.0]
---
header: 
  seq: 6807
  stamp: 
    secs: 1383345370
    nsecs: 178630932
  frame_id: ''
name: ['mockarm_controller']
position: [0.8269893594724731]
velocity: [0.49050274807058003]
effort: [0.0]
---
header: 
  seq: 6808
  stamp: 
    secs: 1383345370
    nsecs: 188697688
  frame_id: ''
name: ['mockarm_controller']
position: [0.8319111879630972]
velocity: [0.4860105155153608]
effort: [0.0]
---
header: 
  seq: 6809
  stamp: 
    secs: 1383345370
    nsecs: 198694313
  frame_id: ''
name: ['mockarm_controller']
position: [0.8368155631612012]
velocity: [0.4828566700899921]
effort: [0.0]
---
header: 
  seq: 6810
  stamp: 
    secs: 1383345370
    nsecs: 208694114
  frame_id: ''
name: ['mockarm_controller']
position: [0.8417897515293851]
velocity: [0.49307973514907444]
effort: [0.0]
---
header: 
  seq: 6811
  stamp: 
    secs: 1383345370
    nsecs: 218696113
  frame_id: ''
name: ['mockarm_controller']
position: [0.8468512063601686]
velocity: [0.5004404618136814]
effort: [0.0]
---
header: 
  seq: 6812
  stamp: 
    secs: 1383345370
    nsecs: 228697530
  frame_id: ''
name: ['mockarm_controller']
position: [0.8518952078984322]
velocity: [0.5038459233107148]
effort: [0.0]
---
header: 
  seq: 6813
  stamp: 
    secs: 1383345370
    nsecs: 238693236
  frame_id: ''
name: ['mockarm_controller']
position: [0.8568693962666161]
velocity: [0.49093844928778746]
effort: [0.0]
---
header: 
  seq: 6814
  stamp: 
    secs: 1383345370
    nsecs: 248696277
  frame_id: ''
name: ['mockarm_controller']
position: [0.8618610379273198]
velocity: [0.49368427066598364]
effort: [0.0]
---
header: 
  seq: 6815
  stamp: 
    secs: 1383345370
    nsecs: 258693241
  frame_id: ''
name: ['mockarm_controller']
position: [0.8668177730029838]
velocity: [0.4914957933231497]
effort: [0.0]
---
header: 
  seq: 6816
  stamp: 
    secs: 1383345370
    nsecs: 268695781
  frame_id: ''
name: ['mockarm_controller']
position: [0.8717919613711675]
velocity: [0.49273782745752864]
effort: [0.0]
---
header: 
  seq: 6817
  stamp: 
    secs: 1383345370
    nsecs: 278693430
  frame_id: ''
name: ['mockarm_controller']
position: [0.8767137898617916]
velocity: [0.48958803249020777]
effort: [0.0]
---
header: 
  seq: 6818
  stamp: 
    secs: 1383345370
    nsecs: 288695668
  frame_id: ''
name: ['mockarm_controller']
position: [0.8816530716449356]
velocity: [0.48961952648135965]
effort: [0.0]
---
header: 
  seq: 6819
  stamp: 
    secs: 1383345370
    nsecs: 298695871
  frame_id: ''
name: ['mockarm_controller']
position: [0.8866970731831991]
velocity: [0.49925779850178814]
effort: [0.0]
---
header: 
  seq: 6820
  stamp: 
    secs: 1383345370
    nsecs: 308693430
  frame_id: ''
name: ['mockarm_controller']
position: [0.8918283411840625]
velocity: [0.5044998526067631]
effort: [0.0]
---
header: 
  seq: 6821
  stamp: 
    secs: 1383345370
    nsecs: 318695457
  frame_id: ''
name: ['mockarm_controller']
position: [0.8968897960148461]
velocity: [0.5032768052882146]
effort: [0.0]
---
header: 
  seq: 6822
  stamp: 
    secs: 1383345370
    nsecs: 328696225
  frame_id: ''
name: ['mockarm_controller']
position: [0.9019163442605898]
velocity: [0.4971857809835477]
effort: [0.0]
---
header: 
  seq: 6823
  stamp: 
    secs: 1383345370
    nsecs: 338692888
  frame_id: ''
name: ['mockarm_controller']
position: [0.9068381727512137]
velocity: [0.4810231128444046]
effort: [0.0]
---
header: 
  seq: 6824
  stamp: 
    secs: 1383345370
    nsecs: 348696392
  frame_id: ''
name: ['mockarm_controller']
position: [0.9117425479493177]
velocity: [0.4862075144348221]
effort: [0.0]
---
header: 
  seq: 6825
  stamp: 
    secs: 1383345370
    nsecs: 358693232
  frame_id: ''
name: ['mockarm_controller']
position: [0.9166992830249817]
velocity: [0.48690914299253096]
effort: [0.0]
---
header: 
  seq: 6826
  stamp: 
    secs: 1383345370
    nsecs: 368695875
  frame_id: ''
name: ['mockarm_controller']
position: [0.9217083779782054]
velocity: [0.4957536572865853]
effort: [0.0]
---
header: 
  seq: 6827
  stamp: 
    secs: 1383345370
    nsecs: 378689631
  frame_id: ''
name: ['mockarm_controller']
position: [0.926787286101509]
velocity: [0.5008785131463099]
effort: [0.0]
---
header: 
  seq: 6828
  stamp: 
    secs: 1383345370
    nsecs: 388695432
  frame_id: ''
name: ['mockarm_controller']
position: [0.9318661942248124]
velocity: [0.5017196605061218]
effort: [0.0]
---
header: 
  seq: 6829
  stamp: 
    secs: 1383345370
    nsecs: 398697093
  frame_id: ''
name: ['mockarm_controller']
position: [0.936927649055596]
velocity: [0.4987637791469821]
effort: [0.0]
---
header: 
  seq: 6830
  stamp: 
    secs: 1383345370
    nsecs: 408693054
  frame_id: ''
name: ['mockarm_controller']
position: [0.9419891038863796]
velocity: [0.49690308568462344]
effort: [0.0]
---
header: 
  seq: 6831
  stamp: 
    secs: 1383345370
    nsecs: 418695792
  frame_id: ''
name: ['mockarm_controller']
position: [0.9469632922545633]
velocity: [0.4889598317294556]
effort: [0.0]
---
header: 
  seq: 6832
  stamp: 
    secs: 1383345370
    nsecs: 428696523
  frame_id: ''
name: ['mockarm_controller']
position: [0.9518327608676276]
velocity: [0.48428330313916]
effort: [0.0]
---
header: 
  seq: 6833
  stamp: 
    secs: 1383345370
    nsecs: 438693375
  frame_id: ''
name: ['mockarm_controller']
position: [0.9567545893582515]
velocity: [0.4868759017334996]
effort: [0.0]
---
header: 
  seq: 6834
  stamp: 
    secs: 1383345370
    nsecs: 448695956
  frame_id: ''
name: ['mockarm_controller']
position: [0.9617985908965152]
velocity: [0.4948495573691432]
effort: [0.0]
---
header: 
  seq: 6835
  stamp: 
    secs: 1383345370
    nsecs: 458693641
  frame_id: ''
name: ['mockarm_controller']
position: [0.9669298588973785]
velocity: [0.5064917580557967]
effort: [0.0]
---
header: 
  seq: 6836
  stamp: 
    secs: 1383345370
    nsecs: 468695697
  frame_id: ''
name: ['mockarm_controller']
position: [0.972008767020682]
velocity: [0.5004343406545937]
effort: [0.0]
---
header: 
  seq: 6837
  stamp: 
    secs: 1383345370
    nsecs: 478692724
  frame_id: ''
name: ['mockarm_controller']
position: [0.9770004086813858]
velocity: [0.4947117602283322]
effort: [0.0]
---
header: 
  seq: 6838
  stamp: 
    secs: 1383345370
    nsecs: 488696690
  frame_id: ''
name: ['mockarm_controller']
position: [0.9819396904645298]
velocity: [0.48433828036320425]
effort: [0.0]
---
header: 
  seq: 6839
  stamp: 
    secs: 1383345370
    nsecs: 498695953
  frame_id: ''
name: ['mockarm_controller']
position: [0.9869138788327135]
velocity: [0.4956839430178129]
effort: [0.0]
---
header: 
  seq: 6840
  stamp: 
    secs: 1383345370
    nsecs: 508692899
  frame_id: ''
name: ['mockarm_controller']
position: [0.9918706139083775]
velocity: [0.48581153343761296]
effort: [0.0]
---
header: 
  seq: 6841
  stamp: 
    secs: 1383345370
    nsecs: 518692331
  frame_id: ''
name: ['mockarm_controller']
position: [0.9968273489840414]
velocity: [0.4877716075244887]
effort: [0.0]
---
header: 
  seq: 6842
  stamp: 
    secs: 1383345370
    nsecs: 528696651
  frame_id: ''
name: ['mockarm_controller']
position: [1.0017840840597052]
velocity: [0.4976142029579213]
effort: [0.0]
---
header: 
  seq: 6843
  stamp: 
    secs: 1383345370
    nsecs: 538691714
  frame_id: ''
name: ['mockarm_controller']
position: [1.0068978987680486]
velocity: [0.49876277268539726]
effort: [0.0]
---
header: 
  seq: 6844
  stamp: 
    secs: 1383345370
    nsecs: 548696525
  frame_id: ''
name: ['mockarm_controller']
position: [1.0119768068913522]
velocity: [0.5027128697717097]
effort: [0.0]
---
header: 
  seq: 6845
  stamp: 
    secs: 1383345370
    nsecs: 558694141
  frame_id: ''
name: ['mockarm_controller']
position: [1.0170033551370958]
velocity: [0.4934277260963647]
effort: [0.0]
---
header: 
  seq: 6846
  stamp: 
    secs: 1383345370
    nsecs: 568696462
  frame_id: ''
name: ['mockarm_controller']
position: [1.0219426369202398]
velocity: [0.4896680661389865]
effort: [0.0]
---
header: 
  seq: 6847
  stamp: 
    secs: 1383345370
    nsecs: 578693196
  frame_id: ''
name: ['mockarm_controller']
position: [1.0268644654108638]
velocity: [0.4876477252178796]
effort: [0.0]
---
header: 
  seq: 6848
  stamp: 
    secs: 1383345370
    nsecs: 588690049
  frame_id: ''
name: ['mockarm_controller']
position: [1.0317688406089678]
velocity: [0.4875609104388049]
effort: [0.0]
---
header: 
  seq: 6849
  stamp: 
    secs: 1383345370
    nsecs: 598694867
  frame_id: ''
name: ['mockarm_controller']
position: [1.0367081223921117]
velocity: [0.49284392168668495]
effort: [0.0]
---
header: 
  seq: 6850
  stamp: 
    secs: 1383345370
    nsecs: 608692813
  frame_id: ''
name: ['mockarm_controller']
position: [1.041839390392975]
velocity: [0.5031641499179522]
effort: [0.0]
---
header: 
  seq: 6851
  stamp: 
    secs: 1383345370
    nsecs: 618692958
  frame_id: ''
name: ['mockarm_controller']
position: [1.0469357518087985]
velocity: [0.5024510909813152]
effort: [0.0]
---
header: 
  seq: 6852
  stamp: 
    secs: 1383345370
    nsecs: 628695926
  frame_id: ''
name: ['mockarm_controller']
position: [1.0519448467620223]
velocity: [0.49727935602340606]
effort: [0.0]
---
header: 
  seq: 6853
  stamp: 
    secs: 1383345370
    nsecs: 638670365
  frame_id: ''
name: ['mockarm_controller']
position: [1.056919035130206]
velocity: [0.4885276338817277]
effort: [0.0]
---
header: 
  seq: 6854
  stamp: 
    secs: 1383345370
    nsecs: 648696987
  frame_id: ''
name: ['mockarm_controller']
position: [1.0619281300834298]
velocity: [0.4956065057112664]
effort: [0.0]
---
header: 
  seq: 6855
  stamp: 
    secs: 1383345370
    nsecs: 658693187
  frame_id: ''
name: ['mockarm_controller']
position: [1.0668848651590936]
velocity: [0.4870526752150785]
effort: [0.0]
---
header: 
  seq: 6856
  stamp: 
    secs: 1383345370
    nsecs: 668695245
  frame_id: ''
name: ['mockarm_controller']
position: [1.0718066936497177]
velocity: [0.48486144129879405]
effort: [0.0]
---
header: 
  seq: 6857
  stamp: 
    secs: 1383345370
    nsecs: 678693225
  frame_id: ''
name: ['mockarm_controller']
position: [1.0767634287253816]
velocity: [0.48897455614716917]
effort: [0.0]
---
header: 
  seq: 6858
  stamp: 
    secs: 1383345370
    nsecs: 688697818
  frame_id: ''
name: ['mockarm_controller']
position: [1.0818074302636453]
velocity: [0.49738699716633344]
effort: [0.0]
---
header: 
  seq: 6859
  stamp: 
    secs: 1383345370
    nsecs: 698693182
  frame_id: ''
name: ['mockarm_controller']
position: [1.0869386982645086]
velocity: [0.5049963587110793]
effort: [0.0]
---
header: 
  seq: 6860
  stamp: 
    secs: 1383345370
    nsecs: 708694812
  frame_id: ''
name: ['mockarm_controller']
position: [1.092017606387812]
velocity: [0.5014224625632699]
effort: [0.0]
---
header: 
  seq: 6861
  stamp: 
    secs: 1383345370
    nsecs: 718693383
  frame_id: ''
name: ['mockarm_controller']
position: [1.096956888170956]
velocity: [0.4918623564174424]
effort: [0.0]
---
header: 
  seq: 6862
  stamp: 
    secs: 1383345370
    nsecs: 728696948
  frame_id: ''
name: ['mockarm_controller']
position: [1.10193107653914]
velocity: [0.4859504072082819]
effort: [0.0]
---
header: 
  seq: 6863
  stamp: 
    secs: 1383345370
    nsecs: 738693470
  frame_id: ''
name: ['mockarm_controller']
position: [1.1068878116148038]
velocity: [0.48974756206539416]
effort: [0.0]
---
header: 
  seq: 6864
  stamp: 
    secs: 1383345370
    nsecs: 748692165
  frame_id: ''
name: ['mockarm_controller']
position: [1.1117747335203878]
velocity: [0.48361424102761413]
effort: [0.0]
---
header: 
  seq: 6865
  stamp: 
    secs: 1383345370
    nsecs: 758694221
  frame_id: ''
name: ['mockarm_controller']
position: [1.1168187350586516]
velocity: [0.49543281978821213]
effort: [0.0]
---
header: 
  seq: 6866
  stamp: 
    secs: 1383345370
    nsecs: 768693758
  frame_id: ''
name: ['mockarm_controller']
position: [1.121880189889435]
velocity: [0.5008366149597727]
effort: [0.0]
---
header: 
  seq: 6867
  stamp: 
    secs: 1383345370
    nsecs: 778693261
  frame_id: ''
name: ['mockarm_controller']
position: [1.1269765513052585]
velocity: [0.504190880077511]
effort: [0.0]
---
header: 
  seq: 6868
  stamp: 
    secs: 1383345370
    nsecs: 788692833
  frame_id: ''
name: ['mockarm_controller']
position: [1.132020552843522]
velocity: [0.49277076380066087]
effort: [0.0]
---
header: 
  seq: 6869
  stamp: 
    secs: 1383345370
    nsecs: 798692829
  frame_id: ''
name: ['mockarm_controller']
position: [1.137012194504226]
velocity: [0.4942708843156621]
effort: [0.0]
---
header: 
  seq: 6870
  stamp: 
    secs: 1383345370
    nsecs: 808693004
  frame_id: ''
name: ['mockarm_controller']
position: [1.1420212894574495]
velocity: [0.49258481199956217]
effort: [0.0]
---
header: 
  seq: 6871
  stamp: 
    secs: 1383345370
    nsecs: 818645003
  frame_id: ''
name: ['mockarm_controller']
position: [1.1469431179480736]
velocity: [0.4857227366647645]
effort: [0.0]
---
header: 
  seq: 6872
  stamp: 
    secs: 1383345370
    nsecs: 828629207
  frame_id: ''
name: ['mockarm_controller']
position: [1.1518300398536578]
velocity: [0.48175491971453693]
effort: [0.0]
---
header: 
  seq: 6873
  stamp: 
    secs: 1383345370
    nsecs: 838699507
  frame_id: ''
name: ['mockarm_controller']
position: [1.1568391348068814]
velocity: [0.49258481199956217]
effort: [0.0]
---
header: 
  seq: 6874
  stamp: 
    secs: 1383345370
    nsecs: 848686221
  frame_id: ''
name: ['mockarm_controller']
position: [1.1619529495152248]
velocity: [0.5050681193425559]
effort: [0.0]
---
header: 
  seq: 6875
  stamp: 
    secs: 1383345370
    nsecs: 858636713
  frame_id: ''
name: ['mockarm_controller']
position: [1.1670318576385283]
velocity: [0.5027128697717097]
effort: [0.0]
---
header: 
  seq: 6876
  stamp: 
    secs: 1383345370
    nsecs: 868630799
  frame_id: ''
name: ['mockarm_controller']
position: [1.1719711394216723]
velocity: [0.48725281475228926]
effort: [0.0]
---
header: 
  seq: 6877
  stamp: 
    secs: 1383345370
    nsecs: 878624525
  frame_id: ''
name: ['mockarm_controller']
position: [1.1769627810823762]
velocity: [0.48952061005235575]
effort: [0.0]
---
header: 
  seq: 6878
  stamp: 
    secs: 1383345370
    nsecs: 888720016
  frame_id: ''
name: ['mockarm_controller']
position: [1.18193696945056]
velocity: [0.4909869083193912]
effort: [0.0]
---
header: 
  seq: 6879
  stamp: 
    secs: 1383345370
    nsecs: 898689381
  frame_id: ''
name: ['mockarm_controller']
position: [1.1868937045262238]
velocity: [0.49159328331487195]
effort: [0.0]
---
header: 
  seq: 6880
  stamp: 
    secs: 1383345370
    nsecs: 908689007
  frame_id: ''
name: ['mockarm_controller']
position: [1.191780626431808]
velocity: [0.48342288115384935]
effort: [0.0]
---
header: 
  seq: 6881
  stamp: 
    secs: 1383345370
    nsecs: 918690266
  frame_id: ''
name: ['mockarm_controller']
position: [1.191780626431808]
velocity: [0.48342288115384935]
effort: [0.0]
---
header: 
  seq: 6882
  stamp: 
    secs: 1383345370
    nsecs: 928692681
  frame_id: ''
name: ['mockarm_controller']
position: [1.1968595345551114]
velocity: [0.4980786626756262]
effort: [0.0]
---
header: 
  seq: 6883
  stamp: 
    secs: 1383345370
    nsecs: 938642990
  frame_id: ''
name: ['mockarm_controller']
position: [1.2019908025559747]
velocity: [0.5055934575685561]
effort: [0.0]
---
header: 
  seq: 6884
  stamp: 
    secs: 1383345370
    nsecs: 948628586
  frame_id: ''
name: ['mockarm_controller']
position: [1.2069998975091984]
velocity: [0.494432430483049]
effort: [0.0]
---
header: 
  seq: 6885
  stamp: 
    secs: 1383345370
    nsecs: 958622902
  frame_id: ''
name: ['mockarm_controller']
position: [1.2119566325848623]
velocity: [0.48955408154704727]
effort: [0.0]
---
header: 
  seq: 6886
  stamp: 
    secs: 1383345370
    nsecs: 968627322
  frame_id: ''
name: ['mockarm_controller']
position: [1.216983180830606]
velocity: [0.49503134190896864]
effort: [0.0]
---
header: 
  seq: 6887
  stamp: 
    secs: 1383345370
    nsecs: 978699257
  frame_id: ''
name: ['mockarm_controller']
position: [1.22193991590627]
velocity: [0.4900380697641203]
effort: [0.0]
---
header: 
  seq: 6888
  stamp: 
    secs: 1383345370
    nsecs: 988695458
  frame_id: ''
name: ['mockarm_controller']
position: [1.2268093845193342]
velocity: [0.4785718538637978]
effort: [0.0]
---
header: 
  seq: 6889
  stamp: 
    secs: 1383345370
    nsecs: 998697171
  frame_id: ''
name: ['mockarm_controller']
position: [1.2317137597174381]
velocity: [0.487948980012331]
effort: [0.0]
---
header: 
  seq: 6890
  stamp: 
    secs: 1383345371
    nsecs: 8693432
  frame_id: ''
name: ['mockarm_controller']
position: [1.2367752145482218]
velocity: [0.5055893348100774]
effort: [0.0]
---
header: 
  seq: 6891
  stamp: 
    secs: 1383345371
    nsecs: 18696461
  frame_id: ''
name: ['mockarm_controller']
position: [1.241976295719165]
velocity: [0.5093107296262328]
effort: [0.0]
---
header: 
  seq: 6892
  stamp: 
    secs: 1383345371
    nsecs: 28694293
  frame_id: ''
name: ['mockarm_controller']
position: [1.2469330307948288]
velocity: [0.4946841392878098]
effort: [0.0]
---
header: 
  seq: 6893
  stamp: 
    secs: 1383345371
    nsecs: 38693927
  frame_id: ''
name: ['mockarm_controller']
position: [1.2518723125779727]
velocity: [0.4881677982945203]
effort: [0.0]
---
header: 
  seq: 6894
  stamp: 
    secs: 1383345371
    nsecs: 48697927
  frame_id: ''
name: ['mockarm_controller']
position: [1.2568290476536366]
velocity: [0.49023193310887686]
effort: [0.0]
---
header: 
  seq: 6895
  stamp: 
    secs: 1383345371
    nsecs: 58694395
  frame_id: ''
name: ['mockarm_controller']
position: [1.2617857827293004]
velocity: [0.49681618479140566]
effort: [0.0]
---
header: 
  seq: 6896
  stamp: 
    secs: 1383345371
    nsecs: 68697612
  frame_id: ''
name: ['mockarm_controller']
position: [1.2666552513423648]
velocity: [0.48103018996980784]
effort: [0.0]
---
header: 
  seq: 6897
  stamp: 
    secs: 1383345371
    nsecs: 78710393
  frame_id: ''
name: ['mockarm_controller']
position: [1.2716119864180286]
velocity: [0.4924235123846467]
effort: [0.0]
---
header: 
  seq: 6898
  stamp: 
    secs: 1383345371
    nsecs: 88697219
  frame_id: ''
name: ['mockarm_controller']
position: [1.276690894541332]
velocity: [0.5047612923179647]
effort: [0.0]
---
header: 
  seq: 6899
  stamp: 
    secs: 1383345371
    nsecs: 98693738
  frame_id: ''
name: ['mockarm_controller']
position: [1.2817872559571555]
velocity: [0.5032449309591667]
effort: [0.0]
---
header: 
  seq: 6900
  stamp: 
    secs: 1383345371
    nsecs: 108693788
  frame_id: ''
name: ['mockarm_controller']
position: [1.286831257495419]
velocity: [0.49836987829893936]
effort: [0.0]
---
header: 
  seq: 6901
  stamp: 
    secs: 1383345371
    nsecs: 118696415
  frame_id: ''
name: ['mockarm_controller']
position: [1.2918578057411627]
velocity: [0.4958615217267108]
effort: [0.0]
---
header: 
  seq: 6902
  stamp: 
    secs: 1383345371
    nsecs: 128696240
  frame_id: ''
name: ['mockarm_controller']
position: [1.2969018072794265]
velocity: [0.49728892223837007]
effort: [0.0]
---
header: 
  seq: 6903
  stamp: 
    secs: 1383345371
    nsecs: 138697557
  frame_id: ''
name: ['mockarm_controller']
position: [1.3018061824775304]
velocity: [0.48333253159593365]
effort: [0.0]
---
header: 
  seq: 6904
  stamp: 
    secs: 1383345371
    nsecs: 148695934
  frame_id: ''
name: ['mockarm_controller']
position: [1.3066931043831147]
velocity: [0.48457331736085896]
effort: [0.0]
---
header: 
  seq: 6905
  stamp: 
    secs: 1383345371
    nsecs: 158694838
  frame_id: ''
name: ['mockarm_controller']
position: [1.3116847460438184]
velocity: [0.49096504973971183]
effort: [0.0]
---
header: 
  seq: 6906
  stamp: 
    secs: 1383345371
    nsecs: 168697012
  frame_id: ''
name: ['mockarm_controller']
position: [1.3168509206297216]
velocity: [0.5097863218771753]
effort: [0.0]
---
header: 
  seq: 6907
  stamp: 
    secs: 1383345371
    nsecs: 178692941
  frame_id: ''
name: ['mockarm_controller']
position: [1.321964735338065]
velocity: [0.5042712462620431]
effort: [0.0]
---
header: 
  seq: 6908
  stamp: 
    secs: 1383345371
    nsecs: 188697921
  frame_id: ''
name: ['mockarm_controller']
position: [1.3269563769987687]
velocity: [0.4953008196768852]
effort: [0.0]
---
header: 
  seq: 6909
  stamp: 
    secs: 1383345371
    nsecs: 198693576
  frame_id: ''
name: ['mockarm_controller']
position: [1.3319131120744327]
velocity: [0.48873349198028754]
effort: [0.0]
---
header: 
  seq: 6910
  stamp: 
    secs: 1383345371
    nsecs: 208695379
  frame_id: ''
name: ['mockarm_controller']
position: [1.3369222070276563]
velocity: [0.4939935851305274]
effort: [0.0]
---
header: 
  seq: 6911
  stamp: 
    secs: 1383345371
    nsecs: 218695599
  frame_id: ''
name: ['mockarm_controller']
position: [1.3418789421033204]
velocity: [0.4829713607779476]
effort: [0.0]
---
header: 
  seq: 6912
  stamp: 
    secs: 1383345371
    nsecs: 228697153
  frame_id: ''
name: ['mockarm_controller']
position: [1.3466960508388246]
velocity: [0.48022218477761214]
effort: [0.0]
---
header: 
  seq: 6913
  stamp: 
    secs: 1383345371
    nsecs: 238696926
  frame_id: ''
name: ['mockarm_controller']
position: [1.3517225990845683]
velocity: [0.4969400144086671]
effort: [0.0]
---
header: 
  seq: 6914
  stamp: 
    secs: 1383345371
    nsecs: 248697392
  frame_id: ''
name: ['mockarm_controller']
position: [1.3568538670854315]
velocity: [0.5040043218606499]
effort: [0.0]
---
header: 
  seq: 6915
  stamp: 
    secs: 1383345371
    nsecs: 258694656
  frame_id: ''
name: ['mockarm_controller']
position: [1.3619153219162152]
velocity: [0.4993050045164925]
effort: [0.0]
---
header: 
  seq: 6916
  stamp: 
    secs: 1383345371
    nsecs: 268695429
  frame_id: ''
name: ['mockarm_controller']
position: [1.366941870161959]
velocity: [0.49459295933717085]
effort: [0.0]
---
header: 
  seq: 6917
  stamp: 
    secs: 1383345371
    nsecs: 278692884
  frame_id: ''
name: ['mockarm_controller']
position: [1.3719335118226625]
velocity: [0.4966807622590696]
effort: [0.0]
---
header: 
  seq: 6918
  stamp: 
    secs: 1383345371
    nsecs: 288696675
  frame_id: ''
name: ['mockarm_controller']
position: [1.3768902468983266]
velocity: [0.48921585823767033]
effort: [0.0]
---
header: 
  seq: 6919
  stamp: 
    secs: 1383345371
    nsecs: 298696543
  frame_id: ''
name: ['mockarm_controller']
position: [1.3817771688039107]
velocity: [0.4840933041688005]
effort: [0.0]
---
header: 
  seq: 6920
  stamp: 
    secs: 1383345371
    nsecs: 308692824
  frame_id: ''
name: ['mockarm_controller']
position: [1.3866989972945347]
velocity: [0.48187081365028966]
effort: [0.0]
---
header: 
  seq: 6921
  stamp: 
    secs: 1383345371
    nsecs: 318695732
  frame_id: ''
name: ['mockarm_controller']
position: [1.391812812002878]
velocity: [0.5080789576098736]
effort: [0.0]
---
header: 
  seq: 6922
  stamp: 
    secs: 1383345371
    nsecs: 328695965
  frame_id: ''
name: ['mockarm_controller']
position: [1.3969440800037414]
velocity: [0.5036580291385234]
effort: [0.0]
---
header: 
  seq: 6923
  stamp: 
    secs: 1383345371
    nsecs: 338695591
  frame_id: ''
name: ['mockarm_controller']
position: [1.401970628249485]
velocity: [0.49508009905876765]
effort: [0.0]
---
header: 
  seq: 6924
  stamp: 
    secs: 1383345371
    nsecs: 348697372
  frame_id: ''
name: ['mockarm_controller']
position: [1.406927363325149]
velocity: [0.48960243734332815]
effort: [0.0]
---
header: 
  seq: 6925
  stamp: 
    secs: 1383345371
    nsecs: 358694097
  frame_id: ''
name: ['mockarm_controller']
position: [1.4119539115708926]
velocity: [0.4984676959285668]
effort: [0.0]
---
header: 
  seq: 6926
  stamp: 
    secs: 1383345371
    nsecs: 368695827
  frame_id: ''
name: ['mockarm_controller']
position: [1.4169280999390765]
velocity: [0.4888637216888426]
effort: [0.0]
---
header: 
  seq: 6927
  stamp: 
    secs: 1383345371
    nsecs: 378693912
  frame_id: ''
name: ['mockarm_controller']
position: [1.4217975685521407]
velocity: [0.4846689173946594]
effort: [0.0]
---
header: 
  seq: 6928
  stamp: 
    secs: 1383345371
    nsecs: 388696963
  frame_id: ''
name: ['mockarm_controller']
position: [1.4267368503352846]
velocity: [0.484100929446629]
effort: [0.0]
---
header: 
  seq: 6929
  stamp: 
    secs: 1383345371
    nsecs: 398693801
  frame_id: ''
name: ['mockarm_controller']
position: [1.4317110387034684]
velocity: [0.49687227731333056]
effort: [0.0]
---
header: 
  seq: 6930
  stamp: 
    secs: 1383345371
    nsecs: 408693960
  frame_id: ''
name: ['mockarm_controller']
position: [1.4369295731669316]
velocity: [0.512928490609712]
effort: [0.0]
---
header: 
  seq: 6931
  stamp: 
    secs: 1383345371
    nsecs: 418694318
  frame_id: ''
name: ['mockarm_controller']
position: [1.4419735747051952]
velocity: [0.5009436426917832]
effort: [0.0]
---
header: 
  seq: 6932
  stamp: 
    secs: 1383345371
    nsecs: 428696629
  frame_id: ''
name: ['mockarm_controller']
position: [1.4469652163658988]
velocity: [0.4911582860084276]
effort: [0.0]
---
header: 
  seq: 6933
  stamp: 
    secs: 1383345371
    nsecs: 438694094
  frame_id: ''
name: ['mockarm_controller']
position: [1.4519394047340828]
velocity: [0.48905597956778823]
effort: [0.0]
---
header: 
  seq: 6934
  stamp: 
    secs: 1383345371
    nsecs: 448696016
  frame_id: ''
name: ['mockarm_controller']
position: [1.4569484996873066]
velocity: [0.4937501186026387]
effort: [0.0]
---
header: 
  seq: 6935
  stamp: 
    secs: 1383345371
    nsecs: 458694177
  frame_id: ''
name: ['mockarm_controller']
position: [1.4618179683003707]
velocity: [0.47956161247430995]
effort: [0.0]
---
header: 
  seq: 6936
  stamp: 
    secs: 1383345371
    nsecs: 468695999
  frame_id: ''
name: ['mockarm_controller']
position: [1.4667223434984746]
velocity: [0.48404808508724223]
effort: [0.0]
---
header: 
  seq: 6937
  stamp: 
    secs: 1383345371
    nsecs: 478693075
  frame_id: ''
name: ['mockarm_controller']
position: [1.4718012516217782]
velocity: [0.503909923931301]
effort: [0.0]
---
header: 
  seq: 6938
  stamp: 
    secs: 1383345371
    nsecs: 488696749
  frame_id: ''
name: ['mockarm_controller']
position: [1.4769848795002014]
velocity: [0.5097480458671642]
effort: [0.0]
---
header: 
  seq: 6939
  stamp: 
    secs: 1383345371
    nsecs: 498692402
  frame_id: ''
name: ['mockarm_controller']
position: [1.4819939744534252]
velocity: [0.495067696503634]
effort: [0.0]
---
header: 
  seq: 6940
  stamp: 
    secs: 1383345371
    nsecs: 508693870
  frame_id: ''
name: ['mockarm_controller']
position: [1.4869332562365691]
velocity: [0.48658080811190585]
effort: [0.0]
---
header: 
  seq: 6941
  stamp: 
    secs: 1383345371
    nsecs: 518693516
  frame_id: ''
name: ['mockarm_controller']
position: [1.4919947110673526]
velocity: [0.498911269668158]
effort: [0.0]
---
header: 
  seq: 6942
  stamp: 
    secs: 1383345371
    nsecs: 528694578
  frame_id: ''
name: ['mockarm_controller']
position: [1.4968990862654568]
velocity: [0.48572597782550864]
effort: [0.0]
---
header: 
  seq: 6943
  stamp: 
    secs: 1383345371
    nsecs: 538694687
  frame_id: ''
name: ['mockarm_controller']
position: [1.5017511015860008]
velocity: [0.48006483828475544]
effort: [0.0]
---
header: 
  seq: 6944
  stamp: 
    secs: 1383345371
    nsecs: 548692522
  frame_id: ''
name: ['mockarm_controller']
position: [1.5067252899541848]
velocity: [0.49244514089535435]
effort: [0.0]
---
header: 
  seq: 6945
  stamp: 
    secs: 1383345371
    nsecs: 558694926
  frame_id: ''
name: ['mockarm_controller']
position: [1.511856557955048]
velocity: [0.5061919700960122]
effort: [0.0]
---
header: 
  seq: 6946
  stamp: 
    secs: 1383345371
    nsecs: 568692328
  frame_id: ''
name: ['mockarm_controller']
position: [1.5169878259559113]
velocity: [0.5060921196235602]
effort: [0.0]
---
header: 
  seq: 6947
  stamp: 
    secs: 1383345371
    nsecs: 578693398
  frame_id: ''
